code,display_loc,full_loc,name,city,state,country,tz,latitude,longitude,ctid,train
AAR,"Aarhus, Denmark","Aarhus, Denmark - Tirstrup (AAR)",Tirstrup,Aarhus,(null),DK,Europe/Copenhagen,56.3023,10.62627,25660,0
AAX,"Araxa, MG Brazil","Araxa, MG Brazil (AAX)",Araxa,Araxa,MG,BR,America/Sao_Paulo,-19.5632,-46.9604,40764,0
ACE,"Lanzarote, Spain","Lanzarote, Spain (ACE)",Lanzarote,Lanzarote,(null),ES,Atlantic/Canary,28.95027,-13.60556,15822,0
AES,"Aalesund, Norway","Aalesund, Norway - Vigra (AES)",Vigra,Aalesund,(null),NO,Europe/Oslo,62.56037,6.11016,20830,0
AFA,"San Rafael, MD Argentina","San Rafael, MD Argentina (AFA)",San Rafael,San Rafael,MD,AR,America/Buenos_Aires,-34.58831,-68.40385,27041,0
AGM,"Tasiilaq, Greenland","Tasiilaq, Greenland (AGM)",Tasiilaq,Tasiilaq,(null),GL,America/Godthab,65.66666667,-37.66666667,54731,0
AHB,"Abha, Saudi Arabia","Abha, Saudi Arabia (AHB)",Abha,Abha,(null),SA,Asia/Riyadh,18.24037,42.65662,10157,0
AIA,"Alliance, NE","Alliance, NE USA (AIA)",Alliance,Alliance,NE,US,America/Denver,42.05303,-102.80409,17235,0
AJI,"Agri., Turkey","Agri., Turkey - Agri (AJI)",Agri,Agri.,(null),TR,Europe/Istanbul,39.65454,43.02598,51665,0
AJR,"Arvidsjaur, Sweden","Arvidsjaur, Sweden (AJR)",Arvidsjaur,Arvidsjaur,(null),SE,Europe/Stockholm,65.59076,19.28169,31118,0
AKK,"Akhiok, AK","Akhiok, AK USA - Akhiok SPB (AKK)",Akhiok SPB,Akhiok,AK,US,America/Anchorage,56.94003,-154.18083,50581,0
AMM,"Amman, Jordan","Amman, Jordan - Queen Alia Intl (AMM)",Queen Alia Intl,Amman,(null),JO,Asia/Amman,31.72256,35.99321,25883,0
AMR,"Arno, Marshall Islands","Arno, Marshall Islands (AMR)",Almeria,Arno,(null),ES,Pacific/Majuro,36.834442,-2.4561112,4357,1
ESB,"Ankara, Turkey","Ankara, Turkey - Esenboga (ESB)",Esenboga,Ankara,(null),TR,Europe/Istanbul,40.12808,32.99508,16665,0
AOS,"Amook, AK","Amook, AK USA (AOS)",Amook,Amook,AK,US,America/Anchorage,57.47161,-153.81542,51631,0
ARD,"Alor Island, Indonesia","Alor Island, Indonesia - Mali Airport (ARD)",Mali,Alor Island,(null),ID,Asia/Ujung_Pandang,-8.13234,124.597,51713,0
ASM,"Asmara, Eritrea","Asmara, Eritrea - Asmara International (ASM)",Asmara Intl,Asmara,(null),ER,Africa/Asmera,15.29185,38.91067,1809,0
ATL,"Atlanta, GA","Atlanta, GA USA - Hartsfield-Jackson  (ATL)",Hartsfield-Jackson,Atlanta,GA,US,America/New_York,33.64099,-84.42265,11123,0
AUX,"Araguaina, TO Brazil","Araguaina, TO Brazil (AUX)",Araguaina,Araguaina,TO,BR,America/Fortaleza,-7.22787,-48.2405,51786,0
AWD,"Aniwa, Vanuatu","Aniwa, Vanuatu (AWD)",Aniwa,Aniwa,(null),VU,Pacific/Efate,-19.23728,169.60093,51762,0
AXA,"The Valley, Anguilla","The Valley, Anguilla - Wallblake Airport (AXA)",Wallblake Intl,The Valley,(null),AI,America/Anguilla,18.20483,-63.05508,23476,0
AXP,"Spring Point, Bahamas","Spring Point, Bahamas - Springpoint Arpt (AXP)",Springpoint Arpt,Spring Point,(null),BS,America/Nassau,22.4418,-73.9709,54577,0
AYQ,"Ayers Rock, NT Australia","Ayers Rock, NT Australia - Connellan (AYQ)",Ayers Rock Connellan,Ayers Rock,NT,AU,Australia/Darwin,-25.1891,130.97754,50392,0
BAL,"Batman, Turkey","Batman, Turkey (BAL)",Batman,Batman,(null),TR,Europe/Istanbul,37.92897,41.11658,51955,0
BAX,"Barnaul, Russian Federation","Barnaul, Russian Federation (BAX)",Barnaul,Barnaul,(null),RU,Asia/Krasnoyarsk,53.36018459,83.54762805,20904,0
BBO,"Berbera, Somalia","Berbera, Somalia (BBO)",Berbera,Berbera,(null),SO,Africa/Mogadishu,10.38917,44.94111,52001,0
BDS,"Brindisi, Italy","Brindisi, Italy - Papola Casale (BDS)",Papola Casale,Brindisi,(null),IT,Europe/Rome,40.65763,17.94703,41715,0
BET,"Bethel, AK","Bethel, AK USA - Bethel Airport (BET)",Bethel,Bethel,AK,US,America/Anchorage,60.77972,-161.83778,174,0
BGF,Bangui,"Bangui, Central African Republic (BGF)",Bangui,Bangui,(null),CF,Africa/Bangui,4.39848,18.51879,3450,0
BIN,"Bamiyan, Afghanistan","Bamiyan, Afghanistan (BIN)",Bamiyan,Bamiyan,(null),AF,Asia/Kabul,34.817,67.817,51908,0
BIQ,"Biarritz, France","Biarritz, France - Biarritz Parme (BIQ)",Biarritz Parme,Biarritz,(null),FR,Europe/Paris,43.46842,-1.52333,14399,0
BJS,"Beijing, China","Beijing, China - All airports (BJS)",All airports,Beijing,(null),CN,Asia/Shanghai,39.90869,116.39751,3286,0
NAY,"Beijing, China","Beijing, China - Nanyuan Airport (NAY)",Nanyuan,Beijing,(null),CN,Asia/Shanghai,39.7828,116.388,3286,0
BKI,"Kota Kinabalu, Malaysia","Kota Kinabalu, Malaysia (BKI)",Kota Kinabalu,Kota Kinabalu,(null),MY,Asia/Kuala_Lumpur,5.927477702,116.0498925,28359,0
BLQ,"Bologna, Italy","Bologna, Italy - Guglielmo Marconi (BLQ)",Guglielmo Marconi,Bologna,(null),IT,Europe/Rome,44.53544,11.28867,4001,0
BMY,"Belep Island, New Caledonia","Belep Island, New Caledonia (BMY)",Belep Island,Belep Island,(null),NC,Pacific/Noumea,-19.7206,163.661,51981,0
BNE,"Brisbane, QLD Australia","Brisbane, QLD Australia - International (BNE)",Brisbane,Brisbane,QLD,AU,Australia/Brisbane,-27.39453444,153.1219632,27249,0
BNI,"Benin City, Nigeria","Benin City, Nigeria (BNI)",Benin City,Benin City,(null),NG,Africa/Lagos,6.31667,5.6,24738,0
BNK,"Ballina, NSW Australia","Ballina, NSW Australia - Ballina Byron  (BNK)",Ballina Byron,Ballina,NSW,AU,Australia/Sydney,-28.83780978,153.5559919,30096,0
BRL,"Burlington, IA","Burlington, IA USA (BRL)",Burlington,Burlington,IA,US,America/Chicago,40.7831,-91.12542,33897,0
BRQ,"Brno, Czech Republic","Brno, Czech Republic - Turany (BRQ)",Turany,Brno,(null),CZ,Europe/Prague,49.15127,16.69443,11904,0
BSD,"Baoshan, China","Baoshan, China (BSD)",Baoshan,Baoshan,(null),CN,Asia/Shanghai,25.05427,99.16577,18862,0
AEP,"Buenos Aires, BA Argentina","Buenos Aires, BA Argentina - Arpt. Jorge Newbery (AEP)",Jorge Newbery,Buenos Aires,BA,AR,America/Buenos_Aires,-34.55918,-58.41561,19264,0
BUF,"Buffalo, NY","Buffalo, NY USA - International (BUF)",Buffalo,Buffalo,NY,US,America/New_York,42.94034,-78.7317,3405,0
BUQ,"Bulawayo, Zimbabwe","Bulawayo, Zimbabwe (BUQ)",Bulawayo,Bulawayo,(null),ZW,Africa/Harare,-20.01855903,28.62473646,41804,0
BUW,"Baubau, Indonesia","Baubau, Indonesia - Betoambari Airport (BUW)",Betoambari,Baubau,(null),ID,Asia/Ujung_Pandang,-5.48707,122.56901,51963,0
BVH,"Vilhena, RO Brazil","Vilhena, RO Brazil (BVH)",Brigadeiro Camarao,Vilhena,RO,BR,America/Manaus,-12.69438,-60.09827,54957,0
CAJ,"Canaima, Venezuela","Canaima, Venezuela (CAJ)",Canaima,Canaima,(null),VE,America/Caracas,6.238133254,-62.8521984,52174,0
CAN,"Guangzhou, China","Guangzhou, China - Baiyun (CAN)",Baiyun,Guangzhou,(null),CN,Asia/Shanghai,23.39244,113.3053131,17708,0
CMN,"Casablanca, Morocco","Casablanca, Morocco - Mohamed V (CMN)",Mohamed V,Casablanca,(null),MA,Africa/Casablanca,33.36747,-7.58997,25947,0
CAY,"Cayenne, French Guiana","Cayenne, French Guiana - Rochambeau (CAY)",Rochambeau,Cayenne,(null),GF,America/Cayenne,4.81981,-52.36045,28459,0
CCR,"Concord, CA","Concord, CA USA - Buchanan Fld (CCR)",Buchanan Fld,Concord,CA,US,America/Los_Angeles,37.98937,-122.05802,22251,0
CDZ,"Cadiz, Spain","Cadiz, Spain (CDZ)",Cadiz,Cadiz,(null),ES,Europe/Madrid,36.529446,-6.288611,15701,1
CEH,"Chelinda, Malawi","Chelinda, Malawi (CEH)",Chelinda,Chelinda,(null),MW,Africa/Blantyre,-10.55688,33.79875,319532,0
CEK,Chelyabinsk,"Chelyabinsk, Russian Federation (CEK)",Chelyabinsk,Chelyabinsk,(null),RU,Asia/Yekaterinburg,55.30584,61.50333,8396,0
CEM,"Central, AK","Central, AK USA (CEM)",Central,Central,AK,US,America/Anchorage,65.57361,-144.78306,28868,0
CFB,"Cabo Frio, RJ Brazil","Cabo Frio, RJ Brazil (CFB)",Cabo Frio,Cabo Frio,RJ,BR,America/Sao_Paulo,-22.9217,-42.0743,41854,0
CFN,"Donegal, Ireland","Donegal, Ireland (CFN)",Donegal,Donegal,(null),IE,Europe/Dublin,55.04413,-8.34128,42875,0
CGA,"Craig, AK","Craig, AK USA - Craig SPB (CGA)",Craig SPB,Craig,AK,US,America/Anchorage,55.47861,-133.14778,30527,0
CHI,"Chicago, IL","Chicago, IL USA - All airports (CHI)",All airports,Chicago,IL,US,America/Chicago,41.88451,-87.63095,12514,0
CIK,"Chalkyitsik, AK","Chalkyitsik, AK USA (CIK)",Chalkyitsik,Chalkyitsik,AK,US,America/Anchorage,66.64926,-143.7276,27864,0
CJB,"Coimbatore, India","Coimbatore, India - Peelamedu (CJB)",Peelamedu,Coimbatore,(null),IN,Asia/Calcutta,11.03070396,77.04063342,33181,0
CJC,"Calama, Chile","Calama, Chile - El Loa (CJC)",El Loa,Calama,(null),CL,America/Santiago,-22.49662,-68.90857,41896,0
CKH,"Chokurdah, Russian Federation","Chokurdah, Russian Federation (CKH)",Chokurdah,Chokurdah,(null),RU,Asia/Magadan,70.6231,147.90199,52266,0
CNS,"Cairns, QLD Australia","Cairns, QLD Australia (CNS)",Cairns,Cairns,QLD,AU,Australia/Brisbane,-16.88583,145.75528,23637,0
CRM,"Catarman, Philippines","Catarman, Philippines - National (CRM)",National,Catarman,(null),PH,Asia/Manila,12.5041,124.6375,52219,0
CRV,"Crotone, Italy","Crotone, Italy (CRV)",Crotone,Crotone,(null),IT,Europe/Rome,38.99723,17.08017,25304,0
CSK,"Cap Skirring, Senegal","Cap Skirring, Senegal (CSK)",Cap Skirring,Cap Skirring,(null),SN,Africa/Dakar,12.39064,-16.74342,52183,0
CSX,"Changsha, China","Changsha, China (CSX)",Huanghua Intl,Changsha,(null),CN,Asia/Shanghai,28.18916,113.21963,7314,0
CTA,"Catania, Italy","Catania, Italy - Fontanarossa (CTA)",Fontanarossa,Catania,(null),IT,Europe/Rome,37.46678,15.0664,27781,0
CTN,"Cooktown, QLD Australia","Cooktown, QLD Australia (CTN)",Cooktown,Cooktown,QLD,AU,Australia/Brisbane,-15.4447,145.18401,28465,0
CUL,"Culiacan, Mexico","Culiacan, Mexico - Fedl De Bachigualato (CUL)",Fedl De Bachigualato,Culiacan,(null),MX,America/Mazatlan,24.76455,-107.47472,3030,0
CVM,"Ciudad Victoria, Mexico","Ciudad Victoria, Mexico (CVM)",Ciudad Victoria,Ciudad Victoria,(null),MX,America/Mexico_City,23.70334,-98.95649,9447,0
CYP,"Calbayog, Philippines","Calbayog, Philippines (CYP)",Calbayog,Calbayog,(null),PH,Asia/Manila,12.08333333,124.55,52160,0
CZM,"Cozumel, Mexico","Cozumel, Mexico (CZM)",Cozumel,Cozumel,(null),MX,America/Mexico_City,20.51643,-86.93207,30813,0
CZX,"Changzhou, China","Changzhou, China (CZX)",Changzhou,Changzhou,(null),CN,Asia/Shanghai,31.9197,119.779,42234,0
DBO,"Dubbo, NSW Australia","Dubbo, NSW Australia (DBO)",Dubbo,Dubbo,NSW,AU,Australia/Sydney,-32.21826754,148.5691839,26599,0
DDC,"Dodge City, KS","Dodge City, KS USA - Dodge City Municipal (DDC)",Dodge City Municipal,Dodge City,KS,US,America/Chicago,37.76045,-99.96697,16339,0
DIR,"Dire Dawa, Ethiopia","Dire Dawa, Ethiopia - Aba Tenna D Yilma (DIR)",Aba Tenna D Yilma,Dire Dawa,(null),ET,Africa/Addis_Ababa,9.6247,41.8542,52412,0
DLE,"Dole, France","Dole, France - Tavaux (DLE)",Tavaux,Dole,(null),FR,Europe/Paris,47.03901,5.42725,42862,0
DLG,"Dillingham, AK","Dillingham, AK USA - Municipal (DLG)",Dillingham,Dillingham,AK,US,America/Anchorage,59.04148,-158.51183,9719,0
DLZ,"Dalanzadgad, Mongolia","Dalanzadgad, Mongolia (DLZ)",Dalanzadgad,Dalanzadgad,(null),MN,Asia/Ulan_Bator,43.56962,104.41502,52348,0
DOH,"Doha, Qatar","Doha, Qatar (DOH)",Hamad Intl,Doha,(null),QA,Asia/Qatar,25.26220672,51.61398349,15839,0
DOY,"Dongying, China","Dongying, China (DOY)",Dongying,Dongying,(null),CN,Asia/Shanghai,37.43886,118.6747,20026,0
DSK,"Dera Ismail Khan, Pakistan","Dera Ismail Khan, Pakistan (DSK)",Dera Ismail Khan,Dera Ismail Khan,(null),PK,Asia/Karachi,31.90942,70.89664,27688,0
DUR,"Durban, South Africa","Durban, South Africa - King Shaka Intl  (DUR)",King Shaka Intl,Durban,(null),ZA,Africa/Johannesburg,-29.60652158,31.11598335,33744,0
DYG,"Dayong, China","Dayong, China (DYG)",Dayong,Dayong,(null),CN,Asia/Shanghai,29.1028,110.443,52371,0
DZN,"Zhezkazgan, Kazakhstan","Zhezkazgan, Kazakhstan - Zhezhazgan (DZN)",Zhezhazgan,Zhezkazgan,(null),KZ,Asia/Almaty,47.70872,67.73767,55119,0
EAU,"Eau Claire, WI","Eau Claire, WI USA (EAU)",Eau Claire,Eau Claire,WI,US,America/Chicago,44.86524,-91.48488,14294,0
EBB,"Entebbe, Uganda","Entebbe, Uganda (EBB)",Entebbe,Entebbe,(null),UG,Africa/Kampala,0.04239,32.4435,43108,0
ECN,"Ercan, Cyprus","Ercan, Cyprus (ECN)",Ercan,Ercan,(null),CY,Asia/Nicosia,35.1569308,33.50439795,13598,0
EDA,"Edna Bay, AK","Edna Bay, AK USA (EDA)",Edna Bay,Edna Bay,AK,US,America/Anchorage,55.95002,-133.66662,50851,0
EDO,"Edremit/Korfez, Turkey","Edremit/Korfez, Turkey (EDO)",Edremit/Korfez,Edremit/Korfez,(null),TR,Europe/Istanbul,39.5546,27.0138,52448,0
EGS,"Egilsstadir, Iceland","Egilsstadir, Iceland (EGS)",Egilsstadir,Egilsstadir,(null),IS,Atlantic/Reykjavik,65.28333,-14.4,31882,0
EJH,"Wedjh, Saudi Arabia","Wedjh, Saudi Arabia (EJH)",Wedjh,Wedjh,(null),SA,Asia/Riyadh,26.19855,36.47638,97119,0
EKO,"Elko, NV","Elko, NV USA - Municipal (EKO)",Elko,Elko,NV,US,America/Los_Angeles,40.82375,-115.79247,20340,0
EMD,"Emerald, QLD Australia","Emerald, QLD Australia (EMD)",Emerald,Emerald,QLD,AU,Australia/Brisbane,-23.5675,148.179,33329,0
EVN,"Yerevan, Armenia","Yerevan, Armenia (EVN)",Yerevan,Yerevan,(null),AM,Asia/Yerevan,40.1525,44.40222,28697,0
EYW,"Key West, FL","Key West, FL USA - International (EYW)",Key West,Key West,FL,US,America/New_York,24.55654,-81.75926,9714,0
FLN,"Florianopolis, SC Brazil","Florianopolis, SC Brazil - Hercilio Luz (FLN)",Hercilio Luz,Florianopolis,SC,BR,America/Sao_Paulo,-27.66665,-48.55047,29399,0
FNI,"Nimes, France","Nimes, France - Garons (FNI)",Garons,Nimes,(null),FR,Europe/Paris,43.75744,4.41635,34569,0
FNJ,"Pyongyang, N. Korea","Pyongyang, N. Korea - Sunan (FNJ)",Sunan,Pyongyang,(null),KP,Asia/Pyongyang,39.22406,125.67015,7551,0
GAN,"Gan Island, Maldives","Gan Island, Maldives - Gan/Seenu (GAN)",Gan/Seenu,Gan Island,(null),MV,Indian/Maldives,-0.69334,73.1556,52585,0
GAU,"Guwahati, India","Guwahati, India - Borjhar (GAU)",Borjhar,Guwahati,(null),IN,Asia/Calcutta,26.10609,91.58594,52606,0
GBT,"Gorgan, Iran","Gorgan, Iran (GBT)",Gorgan,Gorgan,(null),IR,Asia/Tehran,36.90938,54.40134,52651,0
GCH,"Gachsaran, Iran","Gachsaran, Iran (GCH)",Gachsaran,Gachsaran,(null),IR,Asia/Tehran,30.35,50.8,52573,0
GDN,"Gdansk, Poland","Gdansk, Poland - Rebiechowo (GDN)",Rebiechowo,Gdansk,(null),PL,Europe/Warsaw,54.37808,18.46823,20925,0
GGR,"Garoe, Somalia","Garoe, Somalia (GGR)",Garoe,Garoe,(null),SO,Africa/Mogadishu,8.46091,48.57227,52598,0
GHT,"Ghat, Libyan Arab Jamahiriya","Ghat, Libyan Arab Jamahiriya (GHT)",Ghat,Ghat,(null),LY,Africa/Tripoli,25.14556,10.14265,52629,0
GJT,"Grand Junction, CO","Grand Junction, CO USA - Grand Junction Regnl (GJT)",Grand Junction Regnl,Grand Junction,CO,US,America/Denver,39.12303,-108.52868,32871,0
GLT,"Gladstone, QLD Australia","Gladstone, QLD Australia (GLT)",Gladstone,Gladstone,QLD,AU,Australia/Brisbane,-23.86887,151.22035,15030,0
GLX,"Galela, Indonesia","Galela, Indonesia (GLX)",Galela,Galela,(null),ID,Asia/Jayapura,1.83831,127.78657,52579,0
GNS,"Gunungsitoli, Indonesia","Gunungsitoli, Indonesia (GNS)",Gunungsitoli,Gunungsitoli,(null),ID,Asia/Jakarta,1.16638,97.70468,52707,0
GNU,"Goodnews Bay, AK","Goodnews Bay, AK USA (GNU)",Goodnews Bay,Goodnews Bay,AK,US,America/Anchorage,59.11728,-161.5814,28554,0
GOJ,Nizhniy Novgorod,"Nizhniy Novgorod, Russian Federation (GOJ)",Nizhniy Novgorod,Nizhniy Novgorod,(null),RU,Europe/Moscow,56.23012,43.78404,5100,0
GRX,"Granada, Spain","Granada, Spain - Federico Garcia Lorca (GRX)",Federico Garcia Lorca,Granada,(null),ES,Europe/Madrid,37.18873,-3.77736,27138,0
GTF,"Great Falls, MT","Great Falls, MT USA - International (GTF)",Great Falls,Great Falls,MT,US,America/Denver,47.4819,-111.37136,137,0
GTO,"Gorontalo, Indonesia","Gorontalo, Indonesia - Tolotio (GTO)",Tolotio,Gorontalo,(null),ID,Asia/Ujung_Pandang,0.63712,122.84986,52654,0
GYE,"Guayaquil, Ecuador","Guayaquil, Ecuador - Jose Joaquin de Olmedo (GYE)",Jose Joaquin de Olmedo,Guayaquil,(null),EC,America/Guayaquil,-2.15742,-79.88356,20093,0
HAK,"Haikou, China","Haikou, China (HAK)",Meilan Intl,Haikou,(null),CN,Asia/Shanghai,19.93672,110.45963,43955,0
HGA,"Hargeisa, Somalia","Hargeisa, Somalia (HGA)",Hargeisa,Hargeisa,(null),SO,Africa/Mogadishu,9.5145,44.08444,52730,0
HGR,"Hagerstown, MD","Hagerstown, MD USA - Wash. County  (HGR)",Wash. County,Hagerstown,MD,US,America/New_York,39.70787,-77.72944,13224,0
HKG,"Hong Kong, Hong Kong","Hong Kong, Hong Kong - Hong Kong Intl  (HKG)",Hong Kong Intl,Hong Kong,(null),HK,Asia/Hong_Kong,22.30815477,113.9186138,23190,0
HKT,"Phuket, Thailand","Phuket, Thailand - International (HKT)",Phuket,Phuket,(null),TH,Asia/Bangkok,8.114729486,98.30691364,23911,0
HNH,"Hoonah, AK","Hoonah, AK USA (HNH)",Hoonah,Hoonah,AK,US,America/Anchorage,58.09698,-135.41102,17543,0
HNY,"Hengyang, China","Hengyang, China (HNY)",Hengyang,Hengyang,(null),CN,Asia/Shanghai,26.9053,112.628,52748,0
HRB,"Harbin, China","Harbin, China (HRB)",Harbin,Harbin,(null),CN,Asia/Shanghai,45.6234,126.25033,6281,0
HUN,"Hualien, Taiwan","Hualien, Taiwan (HUN)",Hualien,Hualien,(null),TW,Asia/Taipei,24.02372,121.61691,9292,0
HUU,"Huanuco, Peru","Huanuco, Peru (HUU)",Huanuco,Huanuco,(null),PE,America/Lima,-9.87881,-76.2048,52776,0
HVD,"Khovd, Mongolia","Khovd, Mongolia (HVD)",Khovd,Khovd,(null),MN,Asia/Ulan_Bator,48.017,91.633,33554,0
HYL,"Hollis, AK","Hollis, AK USA - SPB (HYL)",SPB,Hollis,AK,US,America/Anchorage,55.48046,-132.65313,50980,0
HYS,"Hays, KS","Hays, KS USA - Municipal (HYS)",Hays,Hays,KS,US,America/Chicago,38.85057,-99.27649,25717,0
IBA,"Ibadan, Nigeria","Ibadan, Nigeria (IBA)",Ibadan,Ibadan,(null),NG,Africa/Lagos,7.36246,3.97833,24644,0
IBE,"Ibague, Colombia","Ibague, Colombia (IBE)",Ibague,Ibague,(null),CO,America/Bogota,4.42161,-75.1333,52784,0
ICI,"Cicia, Fiji","Cicia, Fiji (ICI)",Cicia,Cicia,(null),FJ,Pacific/Fiji,-17.7433,-179.342,52273,0
ICT,"Wichita, KS","Wichita, KS USA - Eisenhower National (ICT)",Eisenhower National,Wichita,KS,US,America/Chicago,37.65724,-97.43977,15593,0
IDA,"Idaho Falls, ID","Idaho Falls, ID USA - Fanning Field (IDA)",Fanning Field,Idaho Falls,ID,US,America/Denver,43.51666667,-112.0666667,27327,0
IFN,"Isfahan, Iran","Isfahan, Iran (IFN)",Isfahan Intl,Isfahan,(null),IR,Asia/Tehran,32.75084,51.86127,44427,0
IJK,"Izhevsk, Russian Federation","Izhevsk, Russian Federation (IJK)",Izhevsk,Izhevsk,(null),RU,Europe/Samara,56.8281,53.4575,34984,0
ILO,"Iloilo, Philippines","Iloilo, Philippines - Mandurriao (ILO)",Mandurriao,Iloilo,(null),PH,Asia/Manila,10.82993,122.49395,2143,0
INC,"Yinchuan, China","Yinchuan, China (INC)",Hedong,Yinchuan,(null),CN,Asia/Shanghai,38.3228,106.38817,32344,0
INL,"International Falls, MN","International Falls, MN USA - Falls Intl (INL)",Falls Intl,International Falls,MN,US,America/Chicago,48.56666667,-93.4,26496,0
IPT,"Williamsport, PA","Williamsport, PA USA - Lycoming County (IPT)",Lycoming County,Williamsport,PA,US,America/New_York,41.24175,-76.92163,24550,0
ISA,"Mount Isa, QLD Australia","Mount Isa, QLD Australia (ISA)",Mount Isa,Mount Isa,QLD,AU,Australia/Brisbane,-20.66389,139.48861,33139,0
ISK,"Nasik, India","Nasik, India - Gandhinagar Arpt (ISK)",Ozar,Nasik,(null),IN,Asia/Calcutta,20.11944,73.91368,46448,0
ITB,"Itaituba, PA Brazil","Itaituba, PA Brazil (ITB)",Itaituba,Itaituba,PA,BR,America/Manaus,-4.24234,-56.00067,52857,0
ITH,"Ithaca, NY","Ithaca, NY USA - Tompkins County (ITH)",Tompkins County,Ithaca,NY,US,America/New_York,42.49083,-76.45833,8514,0
IVC,"Invercargill, New Zealand","Invercargill, New Zealand (IVC)",Invercargill,Invercargill,(null),NZ,Pacific/Auckland,-46.41481122,168.322406,36331,0
IXG,"Belgaum, India","Belgaum, India - Sambre (IXG)",Sambre,Belgaum,(null),IN,Asia/Calcutta,15.85929,74.61829,20506,0
IXZ,"Port Blair, India","Port Blair, India (IXZ)",Port Blair,Port Blair,(null),IN,Asia/Calcutta,11.64101,92.72997,25275,0
JHS,"Sisimiut, Greenland","Sisimiut, Greenland (JHS)",Sisimiut,Sisimiut,(null),GL,America/Godthab,66.9515,-53.72263,48664,0
JKR,"Janakpur, Nepal","Janakpur, Nepal (JKR)",Janakpur,Janakpur,(null),NP,Asia/Katmandu,26.7088,85.9224,52882,0
JNB,"Johannesburg, South Africa","Johannesburg, South Africa - OR Tambo (JNB)",OR Tambo,Johannesburg,(null),ZA,Africa/Johannesburg,-26.13348,28.23606,26961,0
JPA,"Joao Pessoa, PB Brazil","Joao Pessoa, PB Brazil - Castro Pinto (JPA)",Castro Pinto,Joao Pessoa,PB,BR,America/Fortaleza,-7.14838,-34.95068,36288,0
JQE,"Jaque, Panama","Jaque, Panama (JQE)",Jaque,Jaque,(null),PA,America/Panama,7.51778,-78.1572,52884,0
JSY,"Syros Island, Greece","Syros Island, Greece (JSY)",Syros Island,Syros Island,(null),GR,Europe/Athens,37.42279,24.95094,49217,0
JTR,"Thira, Greece","Thira, Greece - Santorini/Thira  (JTR)",Santorini/Thira,Thira,(null),GR,Europe/Athens,36.39917,25.47933,49391,0
KAB,"Kariba, Zimbabwe","Kariba, Zimbabwe (KAB)",Kariba,Kariba,(null),ZW,Africa/Harare,-16.51976,28.88498,44624,0
KAN,"Kano, Nigeria","Kano, Nigeria - Aminu Kano Intl Apt (KAN)",Aminu Kano Intl Apt,Kano,(null),NG,Africa/Lagos,12.04759,8.52462,52992,0
KCG,"Chignik, AK","Chignik, AK USA - Fisheries (KCG)",Fisheries,Chignik,AK,US,America/Anchorage,56.31778,-158.59083,5167,0
KEM,"Kemi/Tornio, Finland","Kemi/Tornio, Finland (KEM)",Kemi/Tornio,Kemi/Tornio,(null),FI,Europe/Helsinki,65.77917,24.58472,21272,0
KGP,"Kogalym, Russian Federation","Kogalym, Russian Federation - Kogalym Intl  (KGP)",Kogalym Intl,Kogalym,(null),RU,Asia/Yekaterinburg,62.1904,74.5338,53128,0
KHE,"Kherson, Ukraine","Kherson, Ukraine (KHE)",Kherson,Kherson,(null),UA,Europe/Kiev,46.6758,32.5064,20485,0
KHI,"Karachi, Pakistan","Karachi, Pakistan - Quaid-E-Azam Intl (KHI)",Quaid-E-Azam Intl,Karachi,(null),PK,Asia/Karachi,24.90514873,67.16646483,10828,0
KIM,"Kimberley, South Africa","Kimberley, South Africa (KIM)",Kimberley,Kimberley,(null),ZA,Africa/Johannesburg,-28.80283,24.76517,3118,0
KJA,Krasnojarsk,"Krasnojarsk, Russian Federation (KJA)",Krasnojarsk,Krasnojarsk,(null),RU,Asia/Krasnoyarsk,56.1729,92.4933,44867,0
KKN,"Kirkenes, Norway","Kirkenes, Norway - Hoeybuktmoen (KKN)",Hoeybuktmoen,Kirkenes,(null),NO,Europe/Oslo,69.72578,29.89129,44792,0
KLW,"Klawock, AK","Klawock, AK USA (KLW)",Klawock,Klawock,AK,US,America/Anchorage,55.57889,-133.07667,25209,0
KRL,"Korla, China","Korla, China (KRL)",Korla,Korla,(null),CN,Asia/Shanghai,41.6978,86.1289,28708,0
KRT,"Khartoum, Sudan","Khartoum, Sudan - Civil (KRT)",Civil,Khartoum,(null),SD,Africa/Khartoum,15.5895,32.55316,10864,0
KSD,"Karlstad, Sweden","Karlstad, Sweden (KSD)",Karlstad,Karlstad,(null),SE,Europe/Stockholm,59.44367278,13.34436646,26089,0
KSN,"Kostanay, Kazakhstan","Kostanay, Kazakhstan (KSN)",Kostanay,Kostanay,(null),KZ,Asia/Qyzylorda,53.20639,63.55083,8333,0
KTE,"Kerteh, Malaysia","Kerteh, Malaysia (KTE)",Kerteh,Kerteh,(null),MY,Asia/Kuala_Lumpur,4.5393,103.4261,44687,0
KTM,"Kathmandu, Nepal","Kathmandu, Nepal - Tribhuvan (KTM)",Tribhuvan,Kathmandu,(null),NP,Asia/Katmandu,27.69658,85.3591,25800,0
KTN,"Ketchikan, AK","Ketchikan, AK USA - International (KTN)",Ketchikan,Ketchikan,AK,US,America/Anchorage,55.35556,-131.71361,36133,0
KTT,"Kittila, Finland","Kittila, Finland (KTT)",Kittila,Kittila,(null),FI,Europe/Helsinki,67.70102,24.84685,44801,0
KUA,"Kuantan, Malaysia","Kuantan, Malaysia (KUA)",Kuantan,Kuantan,(null),MY,Asia/Kuala_Lumpur,3.78052865,103.2147248,31516,0
KWJ,"Gwangju, S. Korea","Gwangju, S. Korea (KWJ)",Gwangju,Gwangju,(null),KR,Asia/Seoul,35.1399374,126.8109499,52716,0
KWL,"Guilin, China","Guilin, China (KWL)",Guilin,Guilin,(null),CN,Asia/Shanghai,25.21834,110.04121,1955,0
KYA,"Konya, Turkey","Konya, Turkey (KYA)",Konya,Konya,(null),TR,Europe/Istanbul,37.979,32.56186,30680,0
KZO,"Kzyl-Orda, Kazakhstan","Kzyl-Orda, Kazakhstan (KZO)",Kzyl-Orda,Kzyl-Orda,(null),KZ,Asia/Qyzylorda,44.70923,65.59052,53207,0
LAN,"Lansing, MI","Lansing, MI USA - Capital City (LAN)",Capital City,Lansing,MI,US,America/New_York,42.7787,-84.58736,25955,0
LBB,"Lubbock, TX","Lubbock, TX USA - International (LBB)",Lubbock,Lubbock,TX,US,America/Chicago,33.6637,-101.82322,2965,0
LBS,"Labasa, Fiji","Labasa, Fiji (LBS)",Labasa,Labasa,(null),FJ,Pacific/Fiji,-16.46564,179.33859,45003,0
LBV,"Libreville, Gabon","Libreville, Gabon (LBV)",Libreville,Libreville,(null),GA,Africa/Libreville,0.4586,9.41228,21657,0
LCA,"Larnaca, Cyprus","Larnaca, Cyprus (LCA)",Larnaca,Larnaca,(null),CY,Asia/Nicosia,34.87512,33.62485,32005,0
LED,St Petersburg,"St Petersburg, Russian Federation - Pulkovo (LED)",Pulkovo,St Petersburg,(null),RU,Europe/Moscow,59.80391643,30.26593323,13695,0
LGK,"Langkawi, Malaysia","Langkawi, Malaysia (LGK)",Langkawi,Langkawi,(null),MY,Asia/Kuala_Lumpur,6.32973,99.72867,45113,0
LIL,"Lille, France","Lille, France - Lesquin (LIL)",Lesquin,Lille,(null),FR,Europe/Paris,50.5675352,3.104370063,12446,0
LIO,"Limon, Costa Rica","Limon, Costa Rica (LIO)",Limon,Limon,(null),CR,America/Costa_Rica,9.95796,-83.02201,45360,0
LIQ,Lisala,"Lisala, Congo, Democratic Republic (LIQ)",Lisala,Lisala,(null),CD,Africa/Kinshasa,2.17066,21.4969,53314,0
LIR,"Liberia, Costa Rica","Liberia, Costa Rica (LIR)",Liberia,Liberia,(null),CR,America/Costa_Rica,10.59396494,-85.54389502,59,0
LKG,"Lokichoggio, Kenya","Lokichoggio, Kenya (LKG)",Lokichoggio,Lokichoggio,(null),KE,Africa/Nairobi,4.20412,34.3482,53323,0
LKL,"Lakselv, Norway","Lakselv, Norway - Banak (LKL)",Banak,Lakselv,(null),NO,Europe/Oslo,70.06881,24.97349,45068,0
LKO,"Lucknow, India","Lucknow, India - Amausi (LKO)",Amausi,Lucknow,(null),IN,Asia/Calcutta,26.76059,80.88934,32925,0
LLI,"Lalibela, Ethiopia","Lalibela, Ethiopia (LLI)",Lalibela,Lalibela,(null),ET,Africa/Addis_Ababa,11.97518,38.98061,53244,0
LME,"Le Mans, France","Le Mans, France - Arnage (LME)",Arnage,Le Mans,(null),FR,Europe/Paris,47.94861,0.20167,124,0
LNK,"Lincoln, NE","Lincoln, NE USA - Municipal (LNK)",Lincoln,Lincoln,NE,US,America/Chicago,40.85056,-96.75946,3562,0
LOE,"Loei, Thailand","Loei, Thailand (LOE)",Loei,Loei,(null),TH,Asia/Bangkok,17.44137,101.72271,45448,0
LOK,"Lodwar, Kenya","Lodwar, Kenya (LOK)",Lodwar,Lodwar,(null),KE,Africa/Nairobi,3.12197,35.60869,53320,0
LHR,"London, United Kingdom","London, United Kingdom - Heathrow (LHR)",Heathrow,London,(null),GB,Europe/London,51.47115,-0.45649,28501,0
LCY,"London, United Kingdom","London, United Kingdom - London City Airport (LCY)",London City,London,(null),GB,Europe/London,51.50431835,0.049443513,28501,0
STN,"London, United Kingdom","London, United Kingdom - Stansted (STN)",Stansted,London,(null),GB,Europe/London,51.885,0.235,28501,0
LPD,"La Pedrera, Colombia","La Pedrera, Colombia (LPD)",La Pedrera,La Pedrera,(null),CO,America/Bogota,-1.32861,-69.5797,53215,0
LPM,"Lamap, Vanuatu","Lamap, Vanuatu (LPM)",Lamap,Lamap,(null),VU,Pacific/Efate,-16.45761,167.82869,53248,0
LSC,"La Serena, Chile","La Serena, Chile - La Florida (LSC)",La Florida,La Serena,(null),CL,America/Santiago,-29.91574,-71.20149,20445,0
LSH,"Lashio, Myanmar","Lashio, Myanmar (LSH)",Lashio,Lashio,(null),MM,Asia/Rangoon,22.97831,97.7524,53267,0
LUV,"Langgur, Indonesia","Langgur, Indonesia (LUV)",Langgur,Langgur,(null),ID,Asia/Jayapura,-5.66162,132.731,53256,0
LWB,"Lewisburg, WV","Lewisburg, WV USA - Greenbrier Valley (LWB)",Greenbrier Valley,Lewisburg,WV,US,America/New_York,37.85818,-80.39924,21599,0
LWS,"Lewiston, ID","Lewiston, ID USA - Nez Perce Rgnl (LWS)",Nez Perce Rgnl,Lewiston,ID,US,America/Los_Angeles,46.37433,-117.01516,29869,0
LYR,"Longyearbyen, Norway","Longyearbyen, Norway - Svalbard (LYR)",Svalbard,Longyearbyen,(null),NO,Arctic/Longyearbyen,78.24611,15.46556,53340,0
MBI,"Mbeya, Tanzania","Mbeya, Tanzania (MBI)",Mbeya,Mbeya,(null),TZ,Africa/Dar_es_Salaam,-8.91908,33.46298,53554,0
MBL,"Manistee, MI","Manistee, MI USA - Blacker (MBL)",Blacker,Manistee,MI,US,America/New_York,44.27501,-86.25436,4596,0
MCG,"Mcgrath, AK","Mcgrath, AK USA (MCG)",Mcgrath,Mcgrath,AK,US,America/Anchorage,62.95278,-155.60556,51179,0
MDQ,"Mar Del Plata, BA Argentina","Mar Del Plata, BA Argentina (MDQ)",Mar Del Plata,Mar Del Plata,BA,AR,America/Buenos_Aires,-37.93417,-57.57333,4012,0
MDU,"Mendi, Papua New Guinea","Mendi, Papua New Guinea (MDU)",Mendi,Mendi,(null),PG,Pacific/Port_Moresby,-6.1503,143.65714,53575,0
MFM,"Macau, Macao","Macau, Macao (MFM)",Macau,Macau,(null),MO,Asia/Macao,22.15766842,113.5762821,15097,0
MGW,"Morgantown, WV","Morgantown, WV USA (MGW)",Morgantown,Morgantown,WV,US,America/New_York,39.64286,-79.91617,27010,0
BGY,"Milan, Italy","Milan, Italy - Orio Al Serio (BGY)",Orio Al Serio,Milan,(null),IT,Europe/Rome,45.67389,9.70417,864,0
MIM,"Merimbula, NSW Australia","Merimbula, NSW Australia (MIM)",Merimbula,Merimbula,NSW,AU,Australia/Sydney,-36.9086,149.901,45996,0
MJC,"Man, Cote DIvoire","Man, Cote DIvoire (MJC)",Man,Man,(null),CI,Africa/Abidjan,7.27207,-7.58736,53448,0
MJF,"Mosjoen, Norway","Mosjoen, Norway - Kjaerstad (MJF)",Kjaerstad,Mosjoen,(null),NO,Europe/Oslo,65.784,13.21491,22017,0
MLU,"Monroe, LA","Monroe, LA USA - Huenefeld (MLU)",Huenefeld,Monroe,LA,US,America/Chicago,32.50975905,-92.04389564,11995,0
MMB,"Memanbetsu, Japan","Memanbetsu, Japan (MMB)",Memanbetsu,Memanbetsu,(null),JP,Asia/Tokyo,43.88061,144.16405,53571,0
MOF,"Maumere, Indonesia","Maumere, Indonesia - Waioti (MOF)",Waioti,Maumere,(null),ID,Asia/Ujung_Pandang,-8.6391,122.2386,53542,0
MOI,"Mitiaro Island, Cook Islands","Mitiaro Island, Cook Islands (MOI)",Mitiaro Island,Mitiaro Island,(null),CK,Pacific/Rarotonga,-19.8425,-157.703,53621,0
MPA,"Mpacha, Namibia","Mpacha, Namibia (MPA)",Mpacha,Mpacha,(null),NA,Africa/Windhoek,-17.63392,24.17739,53704,0
MQJ,"Khonuu, Russian Federation","Khonuu, Russian Federation - Moma Airport (MQJ)",Moma,Khonuu,(null),RU,Asia/Srednekolymsk,66.45583,143.25314,320261,0
MQL,"Mildura, VIC Australia","Mildura, VIC Australia (MQL)",Mildura,Mildura,VIC,AU,Australia/Sydney,-34.2307312,142.0847017,2529,0
MQX,"Makale, Ethiopia","Makale, Ethiopia (MQX)",Makale,Makale,(null),ET,Africa/Addis_Ababa,13.46737,39.53346,53418,0
MSO,"Missoula, MT","Missoula, MT USA - Johnson-Bell Field (MSO)",Johnson-Bell Field,Missoula,MT,US,America/Denver,46.91603,-114.0915,19509,0
AGB,"Augsburg, Germany","Augsburg, Germany - Augsburg/Muhlhausen (AGB)",Augsburg/Muhlhausen,Augsburg,(null),DE,Europe/Berlin,48.42516,10.93176,14057,0
MVD,"Montevideo, Uruguay","Montevideo, Uruguay - Carrasco (MVD)",Carrasco,Montevideo,(null),UY,America/Montevideo,-34.83842,-56.03081,5518,0
MXX,"Mora, Sweden","Mora, Sweden (MXX)",Mora,Mora,(null),SE,Europe/Stockholm,60.95791,14.51138,21566,0
MXZ,"Meixian, China","Meixian, China (MXZ)",Meixian,Meixian,(null),CN,Asia/Shanghai,24.26535,116.09991,53562,0
MYW,"Mtwara, Tanzania","Mtwara, Tanzania (MYW)",Mtwara,Mtwara,(null),TZ,Africa/Dar_es_Salaam,-10.33906,40.18178,53705,0
NAO,"Nanchong, China","Nanchong, China (NAO)",Nanchong,Nanchong,(null),CN,Asia/Shanghai,30.75577,106.06073,33346,0
NDB,"Nouadhibou, Mauritania","Nouadhibou, Mauritania (NDB)",Nouadhibou,Nouadhibou,(null),MR,Africa/Nouakchott,20.92857,-17.03151,53852,0
NDO,"La Palma Del Condado, Spain","La Palma Del Condado, Spain (NDO)",La Palma del Condado ,La Palma Del Condado,(null),ES,Europe/Madrid,37.3907,-6.55442,53214,1
NGB,"Ningbo, China","Ningbo, China (NGB)",Lishe Intl,Ningbo,(null),CN,Asia/Shanghai,29.8267,121.462,24286,0
NKG,"Nanking/Nanjing, China","Nanking/Nanjing, China (NKG)",Lukou Intl,Nanking/Nanjing,(null),CN,Asia/Shanghai,31.74204,118.86203,20564,0
NNY,"Nanyang, China","Nanyang, China (NNY)",Nanyang,Nanyang,(null),CN,Asia/Shanghai,32.9808,112.615,32212,0
NOS,"Nossi-be, Madagascar","Nossi-be, Madagascar - Fascene (NOS)",Fascene,Nossi-be,(null),MG,Indian/Antananarivo,-13.31207,48.31482,53851,0
NOV,"Huambo, Angola","Huambo, Angola (NOV)",Huambo,Huambo,(null),AO,Africa/Luanda,-12.80888,15.76055,52772,0
NOZ,Novokuznetsk,"Novokuznetsk, Russian Federation (NOZ)",Novokuznetsk,Novokuznetsk,(null),RU,Asia/Krasnoyarsk,53.80359381,86.86375032,53856,0
NRK,"Norrkoping, Sweden","Norrkoping, Sweden - Kungsangen (NRK)",Kungsangen,Norrkoping,(null),SE,Europe/Stockholm,58.58597,16.24054,46649,0
NRL,North Ronaldsay,"North Ronaldsay, United Kingdom (NRL)",North Ronaldsay,North Ronaldsay,(null),GB,Europe/London,59.3675,-2.43444,46888,0
NUP,"Nunapitchuk, AK","Nunapitchuk, AK USA (NUP)",Nunapitchuk,Nunapitchuk,AK,US,America/Anchorage,60.90563,-162.44027,14104,0
NYK,"Nanyuki, Kenya","Nanyuki, Kenya (NYK)",Nanyuki,Nanyuki,(null),KE,Africa/Nairobi,-0.06667,37.03333,46425,0
OBT,"Oakland, MD","Oakland, MD USA - Oakland/Coliseum (OBT)",Oakland,Oakland,MD,US,America/New_York,39.409856,-79.408955,14731,0
OCC,"Coca, Ecuador","Coca, Ecuador (OCC)",Francisco de Orellana,Coca,(null),EC,America/Guayaquil,-0.46289,-76.9868,305947,0
OLA,"Orland, Norway","Orland, Norway (OLA)",Orland,Orland,(null),NO,Europe/Oslo,63.69891,9.604,53937,0
OMR,"Oradea, Romania","Oradea, Romania (OMR)",Oradea,Oradea,(null),RO,Europe/Bucharest,47.02528,21.9025,21098,0
OOK,"Toksook Bay, AK","Toksook Bay, AK USA (OOK)",Toksook Bay,Toksook Bay,AK,US,America/Anchorage,60.53778,-165.08802,11205,0
OPS,"Sinop, Brazil","Sinop, Brazil - Sinop Airport (OPS)",Sinop,Sinop,(null),BR,America/Cuiaba,-11.885,-55.58611,54535,0
ORF,"Norfolk, VA","Norfolk, VA USA - International (ORF)",Norfolk,Norfolk,VA,US,America/New_York,36.89543,-76.20049,29195,0
MCO,"Orlando, FL","Orlando, FL USA - International (MCO)",Orlando,Orlando,FL,US,America/New_York,28.43103,-81.30768,9900,0
OSD,"Ostersund, Sweden","Ostersund, Sweden - Froesoe (OSD)",Froesoe,Ostersund,(null),SE,Europe/Stockholm,63.19332,14.50401,46917,0
OSI,"Osijek, Croatia","Osijek, Croatia (OSI)",Osijek,Osijek,(null),HR,Europe/Zagreb,45.46267,18.81016,14513,0
OSR,"Ostrava, Czech Republic","Ostrava, Czech Republic - Mosnov (OSR)",Mosnov,Ostrava,(null),CZ,Europe/Prague,49.69629,18.11105,1367,0
OSS,"Osh, Kyrgyzstan","Osh, Kyrgyzstan (OSS)",Osh,Osh,(null),KG,Asia/Bishkek,40.609,72.7933,53943,0
OUA,"Ouagadougou, Burkina Faso","Ouagadougou, Burkina Faso (OUA)",Ouagadougou,Ouagadougou,(null),BF,Africa/Ouagadougou,12.35319,-1.51242,46941,0
OUZ,"Zouerate, Mauritania","Zouerate, Mauritania (OUZ)",Zouerate,Zouerate,(null),MR,Africa/Nouakchott,22.75754,-12.47867,55126,0
OVD,"Asturias, Spain","Asturias, Spain (OVD)",Asturias,Asturias,(null),ES,Europe/Madrid,43.55946507,-6.032216741,40870,0
OXF,"Oxford, United Kingdom","Oxford, United Kingdom - Kidlington (OXF)",Kidlington,Oxford,(null),GB,Europe/London,51.83652,-1.32016,1861,0
PAG,"Pagadian, Philippines","Pagadian, Philippines (PAG)",Pagadian,Pagadian,(null),PH,Asia/Manila,7.83073,123.46118,53969,0
PAS,"Paros, Greece","Paros, Greece (PAS)",Paros,Paros,(null),GR,Europe/Athens,37.02051,25.11397,47064,0
PAT,"Patna, India","Patna, India (PAT)",Patna,Patna,(null),IN,Asia/Calcutta,25.59132,85.08799,12097,0
PAZ,"Poza Rica, Mexico","Poza Rica, Mexico - Tajin (PAZ)",Tajin,Poza Rica,(null),MX,America/Mexico_City,20.60025,-97.46079,47460,0
PCR,"Puerto Carreno, Colombia","Puerto Carreno, Colombia (PCR)",Puerto Carreno,Puerto Carreno,(null),CO,America/Bogota,6.18472,-67.49316,54135,0
PDL,"Ponta Delgada, Portugal","Ponta Delgada, Portugal - Nordela (PDL)",Nordela,Ponta Delgada,(null),PT,Atlantic/Azores,37.74118,-25.69787,8254,0
PDX,"Portland, OR","Portland, OR USA - International (PDX)",Portland,Portland,OR,US,America/Los_Angeles,45.58919,-122.59353,27946,0
PER,"Perth, WA Australia","Perth, WA Australia (PER)",Perth,Perth,WA,AU,Australia/Perth,-31.94028,115.96694,11563,0
PGH,"Pantnagar, India","Pantnagar, India (PGH)",Pantnagar,Pantnagar,(null),IN,Asia/Calcutta,29.0334,79.4737,53998,0
PGK,"Pangkalpinang, Indonesia","Pangkalpinang, Indonesia (PGK)",Pangkalpinang,Pangkalpinang,(null),ID,Asia/Jakarta,-2.16319,106.13922,53994,0
PHO,"Point Hope, AK","Point Hope, AK USA (PHO)",Point Hope,Point Hope,AK,US,America/Anchorage,68.34861,-166.79917,16853,0
PIT,"Pittsburgh, PA","Pittsburgh, PA USA - International (PIT)",Pittsburgh,Pittsburgh,PA,US,America/New_York,40.49581892,-80.24225207,28788,0
PJM,"Puerto Jimenez, Costa Rica","Puerto Jimenez, Costa Rica (PJM)",Puerto Jimenez,Puerto Jimenez,(null),CR,America/Costa_Rica,8.53333,-83.3,47537,0
PKB,"Parkersburg/Parkersburg, WV","Parkersburg/Parkersburg, WV USA - Wood County (PKB)",Wood County,Parkersburg/Parkersburg,WV,US,America/New_York,39.34507,-81.43901,26181,0
PKE,"Parkes, NSW Australia","Parkes, NSW Australia (PKE)",Parkes,Parkes,NSW,AU,Australia/Sydney,-33.1314,148.239,47056,0
PKZ,Pakse,"Pakse, Lao People's Democratic Republic (PKZ)",Pakse,Pakse,(null),LA,Asia/Vientiane,15.1321,105.781,53975,0
PLQ,"Klaipeda/Palanga, Lithuania","Klaipeda/Palanga, Lithuania - Palanga Intl  (PLQ)",Palanga Intl,Klaipeda/Palanga,(null),LT,Europe/Vilnius,55.97323,21.09386,31010,0
PMV,"Porlamar, Venezuela","Porlamar, Venezuela - DelCaribe Marino (PMV)",DelCaribe Marino,Porlamar,(null),VE,America/Caracas,10.91293,-63.96758,10207,0
PNH,"Phnom Penh, Cambodia","Phnom Penh, Cambodia - Pochentong (PNH)",Pochentong,Phnom Penh,(null),KH,Asia/Phnom_Penh,11.54656,104.84414,10892,0
PNI,"Pohnpei, Micronesia","Pohnpei, Micronesia (PNI)",Pohnpei,Pohnpei,(null),FM,Pacific/Kosrae,6.9851,158.20899,54083,0
PNL,"Pantelleria, Italy","Pantelleria, Italy (PNL)",Pantelleria,Pantelleria,(null),IT,Europe/Rome,36.81652,11.96886,47035,0
PNS,"Pensacola, FL","Pensacola, FL USA - Regional (PNS)",Pensacola,Pensacola,FL,US,America/Chicago,30.47353,-87.18664,31846,0
PPT,"Papeete, French Polynesia","Papeete, French Polynesia - Faaa (PPT)",Faaa,Papeete,(null),PF,Pacific/Tahiti,-17.55375,-149.60724,33238,0
PQC,"Phu Quoc, Vietnam","Phu Quoc, Vietnam - Duong Dang (PQC)",Duong Dang,Phu Quoc,(null),VN,Asia/Saigon,10.16170271,103.9977882,54054,0
PQS,"Pilot Station, AK","Pilot Station, AK USA (PQS)",Pilot Station,Pilot Station,AK,US,America/Anchorage,61.93486,-162.90204,6981,0
PRG,"Prague, Czech Republic","Prague, Czech Republic - Vaclav Havel Prague (PRG)",Vaclav Havel Prague,Prague,(null),CZ,Europe/Prague,50.10193109,14.2630899,19865,0
PSG,"Petersburg, AK","Petersburg, AK USA - Municipal (PSG)",Petersburg,Petersburg,AK,US,America/Anchorage,56.80488,-132.934,18785,0
PSS,"Posadas, MI Argentina","Posadas, MI Argentina (PSS)",Posadas,Posadas,MI,AR,America/Buenos_Aires,-27.38584,-55.97073,54112,0
PUB,"Pueblo, CO","Pueblo, CO USA - Memorial (PUB)",Memorial,Pueblo,CO,US,America/Denver,38.28889,-104.49692,429,0
PUS,"Busan, S. Korea","Busan, S. Korea - Gimhae (PUS)",Gimhae,Busan,(null),KR,Asia/Seoul,35.17321591,128.9465027,41830,0
PVD,"Providence, RI","Providence, RI USA - Providence-TFGreen (PVD)",Providence-TFGreen,Providence,RI,US,America/New_York,41.7240501,-71.42940351,21172,0
PVR,"Puerto Vallarta, Mexico","Puerto Vallarta, Mexico - Ordaz (PVR)",Ordaz,Puerto Vallarta,(null),MX,America/Mexico_City,20.6804815,-105.2524534,14318,0
PWQ,"Pavlodar, Kazakhstan","Pavlodar, Kazakhstan (PWQ)",Pavlodar,Pavlodar,(null),KZ,Asia/Almaty,52.195,77.0739,4739,0
RDB,"Red Dog, AK","Red Dog, AK USA (RDB)",Red Dog,Red Dog,AK,US,America/Anchorage,68.02875,-162.90855,51383,0
REL,"Trelew, CB Argentina","Trelew, CB Argentina (REL)",Trelew,Trelew,CB,AR,America/Buenos_Aires,-43.2105,-65.27032,24452,0
RFD,"Rockford, IL","Rockford, IL USA - Greater Rockford (RFD)",Greater Rockford,Rockford,IL,US,America/Chicago,42.20074,-89.09538,12514,0
RFP,"Raiatea, French Polynesia","Raiatea, French Polynesia (RFP)",Raiatea,Raiatea,(null),PF,Pacific/Tahiti,-16.7229,-151.466,47630,0
RGA,"Rio Grande, TF Argentina","Rio Grande, TF Argentina (RGA)",Rio Grande,Rio Grande,TF,AR,America/Buenos_Aires,-53.77767,-67.74939,54239,0
RIX,"Riga, Latvia","Riga, Latvia (RIX)",Riga Intl,Riga,(null),LV,Europe/Riga,56.92361,23.97111,10546,0
RJK,"Rijeka, Croatia","Rijeka, Croatia (RJK)",Rijeka,Rijeka,(null),HR,Europe/Zagreb,45.21689,14.57027,33750,0
RMQ,"Taichung, Taiwan","Taichung, Taiwan - ChingChuanKang (RMQ)",ChingChuanKang,Taichung,(null),TW,Asia/Taipei,24.2625,120.62694,49241,0
RNJ,"Yoronjima, Japan","Yoronjima, Japan (RNJ)",Yoronjima,Yoronjima,(null),JP,Asia/Tokyo,27.04396,128.40152,55096,0
ROA,"Roanoke, VA","Roanoke, VA USA - Municipal (ROA)",Roanoke,Roanoke,VA,US,America/New_York,37.32541,-79.97532,20990,0
FCO,"Rome, Italy","Rome, Italy - Fiumicino (FCO)",Fiumicino,Rome,(null),IT,Europe/Rome,41.79352,12.25259,25465,0
RTA,"Rotuma Island, Fiji","Rotuma Island, Fiji (RTA)",Rotuma Island,Rotuma Island,(null),FJ,Pacific/Fiji,-12.48267,177.0706,54268,0
RUS,"Marau Sound, Solomon Islands","Marau Sound, Solomon Islands (RUS)",Marau Sound,Marau Sound,(null),SB,Pacific/Guadalcanal,-9.86167,160.825,53492,0
RYK,"Rahim Yar Khan, Pakistan","Rahim Yar Khan, Pakistan (RYK)",Rahim Yar Khan,Rahim Yar Khan,(null),PK,Asia/Karachi,28.3839,70.2796,12923,0
GRU,"Sao Paulo, SP Brazil","Sao Paulo, SP Brazil - Guarulhos Intl (GRU)",Guarulhos Intl,Sao Paulo,SP,BR,America/Sao_Paulo,-23.43474386,-46.47826342,10988,0
SBN,"South Bend, IN","South Bend, IN USA - South Bend/Michiana (SBN)",South Bend/Michiana,South Bend,IN,US,America/New_York,41.70118,-86.31224,24251,0
BFI,"Seattle, WA","Seattle, WA USA - King County/Boeing (BFI)",King County/Boeing,Seattle,WA,US,America/Los_Angeles,47.53505,-122.30624,7054,0
SEK,"Ksar Es Souk, Morocco","Ksar Es Souk, Morocco (SEK)",Srednekolymsk,Ksar Es Souk,(null),RU,Asia/Srednekolymsk,67.47979,153.73512,319997,0
GMP,"Seoul, S. Korea","Seoul, S. Korea - Gimpo Intl  (GMP)",Gimpo Intl,Seoul,(null),KR,Asia/Seoul,37.566,126.80077,35982,0
SEL,"Seoul, S. Korea","Seoul, S. Korea - All airports (SEL)",All airports,Seoul,(null),KR,Asia/Seoul,37.56654,126.97797,35982,0
SFB,"Sanford, FL","Sanford, FL USA - Orlando Sanford Intl (SFB)",Orlando Sanford Intl,Sanford,FL,US,America/New_York,28.77605,-81.24506,9900,0
SFJ,"Kangerlussuaq, Greenland","Kangerlussuaq, Greenland (SFJ)",Kangerlussuaq,Kangerlussuaq,(null),GL,America/Godthab,67.01697,-50.68932,52989,0
SGF,"Springfield, MO","Springfield, MO USA - Springfield-Branson  (SGF)",Springfield-Branson,Springfield,MO,US,America/Chicago,37.24421,-93.38686,21223,0
SHE,"Shenyang, China","Shenyang, China (SHE)",Shenyang,Shenyang,(null),CN,Asia/Shanghai,41.63984,123.48342,11981,0
SHO,"Manzini, Swaziland","Manzini, Swaziland - King Mswati III Intl (SHO)",King Mswati III Intl,Manzini,(null),SZ,Africa/Mbabane,-26.3568,31.71701,45758,0
SKT,"Sialkot, Pakistan","Sialkot, Pakistan (SKT)",Sialkot,Sialkot,(null),PK,Asia/Karachi,32.53396806,74.36337502,21674,0
SLI,"Solwezi, Zambia","Solwezi, Zambia (SLI)",Solwezi,Solwezi,(null),ZM,Africa/Lusaka,-12.18333,26.38333,54561,0
SLM,"Salamanca, Spain","Salamanca, Spain - Matacan (SLM)",Matacan,Salamanca,(null),ES,Europe/Madrid,40.95212,-5.50199,3690,0
SMT,"Sorriso, Brazil","Sorriso, Brazil (SMT)",Adolinao Bedin,Sun Moon Lake,(null),BR,America/Cuiaba,-12.48073,-55.6733,71427,0
SOU,"Southampton, United Kingdom","Southampton, United Kingdom - Eastleigh (SOU)",Eastleigh,Southampton,(null),GB,Europe/London,50.95026,-1.3568,23746,0
SOW,"Show Low, AZ","Show Low, AZ USA (SOW)",Show Low,Show Low,AZ,US,America/Phoenix,34.26532,-110.00511,9134,0
CTS,"Sapporo, Japan","Sapporo, Japan - Chitose (CTS)",Chitose,Sapporo,(null),JP,Asia/Tokyo,42.7752,141.69228,36215,0
SPK,"Sapporo, Japan","Sapporo, Japan - All airports (SPK)",All airports,Sapporo,(null),JP,Asia/Tokyo,43.0621,141.35438,36215,0
SPN,Saipan,"Saipan, Northern Mariana Islands - International (SPN)",Saipan Intl,Saipan,(null),MP,Pacific/Saipan,15.11772,145.72609,114017,0
SPR,"San Pedro, Belize","San Pedro, Belize (SPR)",San Pedro,San Pedro,(null),BZ,America/Belize,17.91666667,-87.96666667,48214,0
SPY,"San Pedro, Cote DIvoire","San Pedro, Cote DIvoire (SPY)",San Pedro,San Pedro,(null),CI,Africa/Abidjan,4.74672,-6.66082,54347,0
STO,"Stockholm, Sweden","Stockholm, Sweden - All airports (STO)",All airports,Stockholm,(null),SE,Europe/Stockholm,59.32893,18.06491,9880,0
STS,"Santa Rosa, CA","Santa Rosa, CA USA - Sonoma County (STS)",Sonoma County,Santa Rosa,CA,US,America/Los_Angeles,38.5088,-122.81388,27165,0
STX,Christiansted,"Christiansted, US Virgin Islands - Henry Rohlsen (STX)",Henry Rohlsen,Christiansted,(null),VI,America/St_Thomas,17.69941,-64.79588,27082,0
SUF,"Lamezia-Terme, Italy","Lamezia-Terme, Italy - S Eufemia (SUF)",S Eufemia,Lamezia-Terme,(null),IT,Europe/Rome,38.90539,16.24227,2752,0
SUJ,"Satu Mare, Romania","Satu Mare, Romania (SUJ)",Satu Mare,Satu Mare,(null),RO,Europe/Bucharest,47.70327,22.8857,13484,0
SVC,"Silver City, NM","Silver City, NM USA - Grant County (SVC)",Grant County,Silver City,NM,US,America/Denver,32.63647,-108.15643,12049,0
SVX,Ekaterinburg,"Ekaterinburg, Russian Federation (SVX)",Ekaterinburg,Ekaterinburg,(null),RU,Asia/Yekaterinburg,56.74311,60.80273,25808,0
SXB,"Strasbourg, France","Strasbourg, France - Entzheim (SXB)",Entzheim,Strasbourg,(null),FR,Europe/Paris,48.53832,7.62823,13597,0
SYB,"Seal Bay, AK","Seal Bay, AK USA (SYB)",Seal Bay,Seal Bay,AK,US,America/Anchorage,58.35973,-152.25497,51428,0
SYD,"Sydney, NSW Australia","Sydney, NSW Australia - Kingsford Smith (SYD)",Kingsford Smith,Sydney,NSW,AU,Australia/Sydney,-33.9389895,151.1744734,2258,0
SYM,"Simao, China","Simao, China (SYM)",Simao,Simao,(null),CN,Asia/Shanghai,22.7933,100.959,54523,0
SYO,"Shonai, Japan","Shonai, Japan (SYO)",Shonai,Shonai,(null),JP,Asia/Tokyo,38.81222,139.78722,54495,0
TAC,"Tacloban, Philippines","Tacloban, Philippines - D.Z. Romualdez (TAC)",D.Z. Romualdez,Tacloban,(null),PH,Asia/Manila,11.22763,125.02776,36074,0
TCD,"Tarapaca, Colombia","Tarapaca, Colombia (TCD)",Tarapaca,Tarapaca,(null),CO,America/Bogota,-2.867,-69.733,54721,0
TFS,"Tenerife, Spain","Tenerife, Spain - Sur Reina Sofia (TFS)",Tenerife-Sur,Tenerife,(null),ES,Atlantic/Canary,28.04447,-16.57249,42577,0
TCO,"Tumaco, Colombia","Tumaco, Colombia - La Florida (TCO)",La Florida,Tumaco,(null),CO,America/Bogota,1.81442,-78.7492,54864,0
TCQ,"Tacna, Peru","Tacna, Peru (TCQ)",Tacna,Tacna,(null),PE,America/Lima,-18.05306,-70.27556,54663,0
TDD,"Trinidad, Bolivia","Trinidad, Bolivia (TDD)",Trinidad,Trinidad,(null),BO,America/La_Paz,-14.81874,-64.91802,15736,0
TDG,"Tandag, Philippines","Tandag, Philippines (TDG)",Tandag,Tandag,(null),PH,Asia/Manila,9.066666667,126.1666667,54703,0
TGG,"Kuala Terengganu, Malaysia","Kuala Terengganu, Malaysia - Sultan Mahmood (TGG)",Sultan Mahmood,Kuala Terengganu,(null),MY,Asia/Kuala_Lumpur,5.378843761,103.1060883,26624,0
TGM,"Tirgu Mures, Romania","Tirgu Mures, Romania (TGM)",Tirgu Mures,Tirgu Mures,(null),RO,Europe/Bucharest,46.46771,24.42367799,398,0
TGR,"Touggourt, Algeria","Touggourt, Algeria (TGR)",Touggourt,Touggourt,(null),DZ,Africa/Algiers,33.0678,6.08867,54836,0
TII,"Tirinkot, Afghanistan","Tirinkot, Afghanistan (TII)",Tirinkot,Tirinkot,(null),AF,Asia/Kabul,32.86667,65.63333,54808,0
TIP,Tripoli,"Tripoli, Libyan Arab Jamahiriya - International (TIP)",Tripoli,Tripoli,(null),LY,Africa/Tripoli,32.66354,13.15901,9113,0
TJA,"Tarija, Bolivia","Tarija, Bolivia (TJA)",Tarija,Tarija,(null),BO,America/La_Paz,-21.548236,-64.7088731,6698,0
TJH,"Toyooka, Japan","Toyooka, Japan - Tajima (TJH)",Tajima,Toyooka,(null),JP,Asia/Tokyo,35.51278,134.78694,308433,0
TJK,"Tokat, Turkey","Tokat, Turkey (TJK)",Tokat,Tokat,(null),TR,Europe/Istanbul,40.30628,36.37109,25331,0
TLC,"Toluca, Mexico","Toluca, Mexico - Toluca International (TLC)",Toluca Intl,Toluca,(null),MX,America/Mexico_City,19.33707,-99.56601,53588,0
TLH,"Tallahassee, FL","Tallahassee, FL USA - Municipal (TLH)",Tallahassee,Tallahassee,FL,US,America/New_York,30.39653,-84.35033,15927,0
TLS,"Toulouse, France","Toulouse, France - Blagnac (TLS)",Blagnac,Toulouse,(null),FR,Europe/Paris,43.62908,1.36382,24030,0
TLT,"Tuluksak, AK","Tuluksak, AK USA (TLT)",Tuluksak,Tuluksak,AK,US,America/Anchorage,61.09676,-160.96842,412,0
TNA,"Jinan, China","Jinan, China (TNA)",Jinan,Jinan,(null),CN,Asia/Shanghai,36.8514663,117.2075148,36184,0
TOG,"Togiak Village, AK","Togiak Village, AK USA (TOG)",Togiak Village,Togiak Village,AK,US,America/Anchorage,59.05278,-160.39667,51542,0
TOU,"Touho, New Caledonia","Touho, New Caledonia (TOU)",Touho,Touho,(null),NC,Pacific/Noumea,-20.79,165.259,54837,0
TRI,"Blountville, TN","Blountville, TN USA - Tri Cities TN/VA (TRI)",Tri Cities TN/VA,Blountville,TN,US,America/New_York,36.48069,-82.40709,9857,0
TSE,"Astana, Kazakhstan","Astana, Kazakhstan (TSE)",Nursultan Nazarbayev Intl,Astana,(null),KZ,Asia/Almaty,51.0269708,71.4638501,40866,0
TUB,"Tubuai, French Polynesia","Tubuai, French Polynesia (TUB)",Tubuai,Tubuai,(null),PF,Pacific/Tahiti,-23.36535,-149.52407,54854,0
TUF,"Tours, France","Tours, France - St Symphorien (TUF)",St Symphorien,Tours,(null),FR,Europe/Paris,47.43222,0.72761,27454,0
TUL,"Tulsa, OK","Tulsa, OK USA - International (TUL)",Tulsa,Tulsa,OK,US,America/Chicago,36.19839,-95.88811,16792,0
TUN,"Tunis, Tunisia","Tunis, Tunisia - Carthage (TUN)",Carthage,Tunis,(null),TN,Africa/Tunis,36.85103,10.22722,32784,0
TVY,"Dawe, Myanmar","Dawe, Myanmar (TVY)",Dawe,Dawe,(null),MM,Asia/Rangoon,14.1039,98.2036,52369,0
TYF,"Torsby, Sweden","Torsby, Sweden - Torsby Airport (TYF)",Torsby,Torsby,(null),SE,Europe/Stockholm,60.15438,12.99629,2922,0
TYL,"Talara, Peru","Talara, Peru (TYL)",Talara,Talara,(null),PE,America/Lima,-4.57664,-81.25414,54679,0
UAH,"Ua Huka, French Polynesia","Ua Huka, French Polynesia (UAH)",Ua Huka,Ua Huka,(null),PF,Pacific/Marquesas,-8.93631,-139.55387,54881,0
UBJ,"Ube, Japan","Ube, Japan (UBJ)",Ube,Ube,(null),JP,Asia/Tokyo,33.93,131.27861,49656,0
UBP,"Ubon Ratchathani, Thailand","Ubon Ratchathani, Thailand (USM)",Ubon Ratchathani,Ubon Ratchathani,(null),TH,Asia/Bangkok,15.25128,104.87023,54884,0
UII,"Utila, Honduras","Utila, Honduras (UII)",Utila,Utila,(null),HN,America/Tegucigalpa,16.1131,-86.8803,54924,0
UIO,"Quito, Ecuador","Quito, Ecuador - Mariscal Sucr (UIO)",Mariscal Sucr,Quito,(null),EC,America/Guayaquil,-0.11956,-78.35518,35586,0
UKK,"Ust-Kamenogorsk, Kazakhstan","Ust-Kamenogorsk, Kazakhstan (UKK)",Ust-Kamenogorsk,Ust-Kamenogorsk,(null),KZ,Asia/Almaty,50.02634493,82.50673128,54920,0
ULY,"Ulyanovsk, Russian Federation","Ulyanovsk, Russian Federation (ULY)",Ulyanovsk,Ulyanovsk,(null),RU,Europe/Ulyanovsk,54.41400826,48.80094339,49683,0
UPN,"Uruapan, Mexico","Uruapan, Mexico (UPN)",Uruapan,Uruapan,(null),MX,America/Mexico_City,19.39669,-102.03906,2403,0
URY,"Gurayat, Saudi Arabia","Gurayat, Saudi Arabia (URY)",Gurayat,Gurayat,(null),SA,Asia/Riyadh,31.41278,37.27389,93304,0
UTP,"Utapao, Thailand","Utapao, Thailand (UTP)",Utapao Rayong Pattaya,Utapao,(null),TH,Asia/Bangkok,12.67994,101.00503,24040,0
VAR,"Varna, Bulgaria","Varna, Bulgaria (VAR)",Varna,Varna,(null),BG,Europe/Sofia,43.23207,27.82511,12778,0
VAW,"Vardoe, Norway","Vardoe, Norway (VAW)",Vardoe,Vardoe,(null),NO,Europe/Oslo,70.35539,31.04489,54941,0
VIJ,Virgin Gorda,"Virgin Gorda, British Virgin Islands (VIJ)",Virgin Gorda,Virgin Gorda,(null),VG,America/Tortola,18.44586,-64.42816,49979,0
VIN,"Vinnica, Ukraine","Vinnica, Ukraine (VIN)",Havryshivka Intl,Vinnica,(null),UA,Europe/Kiev,49.2399,28.614,54965,0
VIS,"Visalia, CA","Visalia, CA USA (VIS)",Visalia,Visalia,CA,US,America/Los_Angeles,36.31856,-119.39373,19675,0
VLD,"Valdosta, GA","Valdosta, GA USA - Regional (VLD)",Valdosta,Valdosta,GA,US,America/New_York,30.7839,-83.27144,13758,0
VPE,"Ongiva, Angola","Ongiva, Angola (VPE)",Ongiva,Ongiva,(null),AO,Africa/Luanda,-17.06846,15.72853,53921,0
VPN,"Vopnafjordur, Iceland","Vopnafjordur, Iceland (VPN)",Vopnafjordur,Vopnafjordur,(null),IS,Atlantic/Reykjavik,65.72057,-14.8506,54975,0
VPS,"Valparaiso, FL","Valparaiso, FL USA - Northwest Florida  (VPS)",Destin-Ft Walton Beach,Valparaiso,FL,US,America/Chicago,30.48603339,-86.54702674,11874,0
VRA,"Varadero, Cuba","Varadero, Cuba - Juan Gualberto Gomez (VRA)",Juan Gualberto Gomez,Varadero,(null),CU,America/Havana,23.03445,-81.43528,49786,0
VVO,Vladivostok,"Vladivostok, Russian Federation (VVO)",Vladivostok,Vladivostok,(null),RU,Asia/Vladivostok,43.39895,132.14802,17546,0
VXC,"Lichinga, Mozambique","Lichinga, Mozambique (VXC)",Lichinga,Lichinga,(null),MZ,Africa/Maputo,-13.27528,35.26667,53301,0
WGA,"Wagga Wagga, NSW Australia","Wagga Wagga, NSW Australia - Forrest Hill (WGA)",Forrest Hill,Wagga Wagga,NSW,AU,Australia/Sydney,-35.15924549,147.4617551,33768,0
WLS,Wallis Island,"Wallis Island, Wallis and Futuna (WLS)",Wallis Island,Wallis Island,(null),WF,Pacific/Wallis,-13.23828,-176.19923,55004,0
WNR,"Windorah, QLD Australia","Windorah, QLD Australia (WNR)",Windorah,Windorah,QLD,AU,Australia/Brisbane,-25.4131,142.66701,17248,0
WRL,"Worland, WY","Worland, WY USA (WRL)",Worland,Worland,WY,US,America/Denver,43.96551,-107.95093,18687,0
WUU,"Wau, South Sudan","Wau, South Sudan - Wau airport (WUU)",Wau,Wau,(null),SS,Africa/Juba,7.72583,27.975,55025,0
XAP,"Chapeco, SC Brazil","Chapeco, SC Brazil (XAP)",Chapeco,Chapeco,SC,BR,America/Sao_Paulo,-27.13244315,-52.66037655,52241,0
XCM,"Chatham, ON Canada","Chatham, ON Canada - Chatham-Kent Airport (XCM)",Chatham,Chatham,ON,CA,America/Montreal,42.3081,-82.07894,20711,0
XKH,Xieng Khouang,"Xieng Khouang, Lao People's Democratic Republic (XKH)",Xieng Khouang,Xieng Khouang,(null),LA,Asia/Vientiane,19.44948,103.16158,301041,0
XYP,"Avesta Krylbo, Sweden","Avesta Krylbo, Sweden (XYP)",Avesta Krylbo,Avesta Krylbo,(null),SE,Europe/Stockholm,60.129166,16.214445,51848,1
NSI,"Yaounde, Cameroon","Yaounde, Cameroon - Nsimalen (NSI)",Nsimalen,Yaounde,(null),CM,Africa/Douala,3.72256,11.55327,33993,0
YAP,"Yap, Micronesia","Yap, Micronesia (YAP)",Yap,Yap,(null),FM,Pacific/Truk,9.49995,138.08595,55074,0
YHH,"Campbell River, BC Canada","Campbell River, BC Canada - Harbor SPB (YHH)",Harbor SPB,Campbell River,BC,CA,America/Vancouver,50.017,-125.25,31400,0
YBR,"Brandon, MB Canada","Brandon, MB Canada (YBR)",Brandon,Brandon,MB,CA,America/Winnipeg,49.90738,-99.94915,148,0
YCG,"Castlegar, BC Canada","Castlegar, BC Canada (YCG)",Castlegar,Castlegar,BC,CA,America/Vancouver,49.29639,-117.6325,28570,0
YCS,"Chesterfield Inlet, NU Canada","Chesterfield Inlet, NU Canada (YCS)",Chesterfield Inlet,Chesterfield Inlet,NU,CA,America/Iqaluit,63.34587,-90.72759,50744,0
YCW,"Chilliwack, BC Canada","Chilliwack, BC Canada (YCW)",Chilliwack,Chilliwack,BC,CA,America/Vancouver,49.15364,-121.94301,13030,0
YES,"Yasouj, Iran","Yasouj, Iran (YES)",Yasouj,Yasouj,(null),IR,Asia/Tehran,30.70048,51.54509,55077,0
YFC,"Fredericton, NB Canada","Fredericton, NB Canada (YFC)",Fredericton,Fredericton,NB,CA,America/Halifax,45.86999,-66.53217,35847,0
YFS,"Fort Simpson, NT Canada","Fort Simpson, NT Canada (YFS)",Fort Simpson,Fort Simpson,NT,CA,America/Edmonton,61.76015,-121.23653,43412,0
YGX,"Gillam, MB Canada","Gillam, MB Canada (YGX)",Gillam,Gillam,MB,CA,America/Winnipeg,56.35739,-94.71116,50925,0
YGZ,"Grise Fiord, NU Canada","Grise Fiord, NU Canada (YGZ)",Grise Fiord,Grise Fiord,NU,CA,America/Iqaluit,76.42552,-82.9073,43839,0
YIF,"Pakuashipi, QC Canada","Pakuashipi, QC Canada (YIF)",Pakuashipi,Pakuashipi,QC,CA,America/Nipigon,51.2117,-58.6583,51314,0
YIH,"Yichang, China","Yichang, China (YIH)",Yichang,Yichang,(null),CN,Asia/Shanghai,30.671,111.441,50375,0
YKU,"Chisasibi, QC Canada","Chisasibi, QC Canada (YKU)",Chisasibi,Chisasibi,QC,CA,America/Montreal,53.8056,-78.9169,50749,0
YMF,"Montagne Harbor, BC Canada","Montagne Harbor, BC Canada (YMF)",Montagne Harbor,Montagne Harbor,BC,CA,America/Vancouver,48.90039,-123.41835,62394,0
YMO,"Moosonee, ON Canada","Moosonee, ON Canada (YMO)",Moosonee,Moosonee,ON,CA,America/Montreal,51.29111,-80.60778,24535,0
YMQ,"Montreal, QC Canada","Montreal, QC Canada - All airports (YMQ)",All airports,Montreal,QC,CA,America/Montreal,45.5,-73.583,6966,0
YPH,"Inukjuak, QC Canada","Inukjuak, QC Canada (YPH)",Inukjuak,Inukjuak,QC,CA,America/Montreal,58.46944,-78.08052,51004,0
YQM,"Moncton, NB Canada","Moncton, NB Canada - Moncton Intl (YQM)",Moncton Intl,Moncton,NB,CA,America/Halifax,46.11311,-64.68557,18492,0
YQQ,"Comox, BC Canada","Comox, BC Canada (YQQ)",Comox,Comox,BC,CA,America/Vancouver,49.71083,-124.88667,7464,0
YQZ,"Quesnel, BC Canada","Quesnel, BC Canada (YQZ)",Quesnel,Quesnel,BC,CA,America/Vancouver,53.02611,-122.51028,31985,0
YRA,"Rae Lakes, NT Canada","Rae Lakes, NT Canada (YRA)",Rae Lakes,Rae Lakes,NT,CA,America/Edmonton,64.11599,-117.30958,51379,0
YRT,"Rankin Inlet, NU Canada","Rankin Inlet, NU Canada (YRT)",Rankin Inlet,Rankin Inlet,NU,CA,America/Rankin_Inlet,62.81027,-92.11332,47654,0
YSJ,"Saint John, NB Canada","Saint John, NB Canada (YSJ)",Saint John,Saint John,NB,CA,America/Halifax,45.32825,-65.89119,3019,0
YTO,"Toronto, ON Canada","Toronto, ON Canada - All airports (YTO)",All airports,Toronto,ON,CA,America/Montreal,43.65323,-79.38318,11592,0
YXE,"Saskatoon, SK Canada","Saskatoon, SK Canada (YXE)",Saskatoon,Saskatoon,SK,CA,America/Regina,52.17083,-106.69972,5875,0
YYC,"Calgary, AB Canada","Calgary, AB Canada - International (YYC)",Calgary,Calgary,AB,CA,America/Edmonton,51.12480518,-114.0163732,27482,0
YYF,"Penticton, BC Canada","Penticton, BC Canada (YYF)",Penticton,Penticton,BC,CA,America/Vancouver,49.46306,-119.60222,15547,0
YYR,"Goose Bay, NL Canada","Goose Bay, NL Canada (YYR)",Goose Bay,Goose Bay,NL,CA,America/Halifax,53.31666667,-60.41666667,29304,0
YZF,"Yellowknife, NT Canada","Yellowknife, NT Canada (YZF)",Yellowknife,Yellowknife,NT,CA,America/Edmonton,62.47077478,-114.4378767,24023,0
ZAD,"Zadar, Croatia","Zadar, Croatia (ZAD)",Zadar,Zadar,(null),HR,Europe/Zagreb,44.10827,15.3467,30757,0
ZAH,"Zahedan, Iran","Zahedan, Iran (ZAH)",Zahedan,Zahedan,(null),IR,Asia/Tehran,29.47569,60.90619,23672,0
ZFN,"Tulita/Fort Norman, NT Canada","Tulita/Fort Norman, NT Canada - Tulita (ZFN)",Tulita,Tulita/Fort Norman,NT,CA,America/Edmonton,64.9095,-125.57124,51548,0
ZGI,"Gods River, MB Canada","Gods River, MB Canada (ZGI)",Gods River,Gods River,MB,CA,America/Winnipeg,54.8397,-94.0786,50934,0
ZGS,"Gethsemani, QC Canada","Gethsemani, QC Canada (ZGS)",La Romaine,Gethsemani,QC,CA,America/Nipigon,50.25905,-60.66905,50923,0
ZLT,"La Tabatiere, QC Canada","La Tabatiere, QC Canada (ZLT)",La Tabatiere,La Tabatiere,QC,CA,America/Nipigon,50.8308,-58.9756,51088,0
ZNE,"Newman, WA Australia","Newman, WA Australia (ZNE)",Newman,Newman,WA,AU,Australia/Perth,-23.4178,119.803,46548,0
ZOS,"Osorno, Chile","Osorno, Chile - Canal Balo (ZOS)",Canal Balo,Osorno,(null),CL,America/Santiago,-40.6112,-73.061,46912,0
GRK,"Killeen, TX","Killeen, TX USA - Fort Hood Regional (GRK)",Fort Hood Regional,Killeen,TX,US,America/Chicago,31.06725,-97.82892,35672,0
YXU,"London, ON Canada","London, ON Canada - London Airport (YXU)",London,London,ON,CA,America/Montreal,43.02987,-81.14892,5341,0
TBN,"Fort Leonard Wood, MO","Fort Leonard Wood, MO USA - Waynesville Regional (TBN)",Waynesville Regional,Fort Leonard Wood,MO,US,America/Chicago,37.74163,-92.14074,13325,0
QDH,"Ashford, United Kingdom","Ashford, United Kingdom - Ashford Station (QDH)",Ashford International,Ashford,(null),GB,Europe/London,51.1436,0.87448,20430,1
YGP,"Gaspe, QC Canada","Gaspe, QC Canada (YGP)",Gaspe,Gaspe,QC,CA,America/Montreal,48.77528,-64.47861,35842,0
IBR,"Omitama City, Japan","Omitama City, Japan - Ibaraki Airport (IBR)",Ibaraki,Omitama City,(null),JP,Asia/Tokyo,36.18108,140.41544,58695,0
ILD,"Lleida, Spain","Lleida, Spain - Lleida-Alguaire (ILD)",Lleida-Alguaire,Lleida,(null),ES,Europe/Madrid,41.72889,0.53775,4454,0
JSU,"Maniitsoq, Greenland","Maniitsoq, Greenland - Sukkertoppen (JSU)",Sukkertoppen,Maniitsoq,(null),GL,America/Godthab,65.4125,-52.9394,45740,0
NBS,"Baishan, China","Baishan, China - Changbaishan Airport (NBS)",Changbaishan,Baishan,(null),CN,Asia/Shanghai,42.08778,127.54889,55284,0
NBE,"Enfidha, Tunisia","Enfidha, Tunisia - Enfidha-Hammamet Int (NBE)",Enfidha-Hammamet Int,Enfidha,(null),TN,Africa/Tunis,36.07579,10.43859,70762,0
XOJ,"Cordoba, Spain","Cordoba, Spain - Cordoba Central (XOJ)",Cordoba,Cordoba,(null),ES,Europe/Madrid,37.888336,-4.7894444,4940,1
ZVE,"New Haven, CT","New Haven, CT USA - Union Station (ZVE)",New Haven,New Haven,CT,US,America/New_York,41.2975,-72.926667,14151,1
ZYN,"Nimes, France","Nimes, France - Nimes TGV Station (ZYN)",Nimes,Nimes,(null),FR,Europe/Paris,43.83251,4.366169,34569,1
IGD,"Alikamerli, Turkey","Alikamerli, Turkey - Igdir Airport (IGD)",Igdir,Alikamerli,(null),TR,Europe/Istanbul,39.97495,43.87939,307595,0
RGK,Gorno-Altaysk,"Gorno-Altaysk, Russian Federation - Gorno-Altaysk (RGK)",Gorno-Altaysk,Gorno-Altaysk,(null),RU,Asia/Barnaul,51.9692,85.8364,71079,0
YQJ,"Quadra Island, BC Canada","Quadra Island, BC Canada - Quadra Island (YQJ)",Quadra Island,Quadra Island,BC,CA,America/Vancouver,50.19675,-125.26748,47590,0
XYB,"Borlange/Falun, Sweden","Borlange/Falun, Sweden - Borlange Railway Svc. (XYB)",Borlange,Borlange/Falun,(null),SE,Europe/Stockholm,60.483334,15.425834,41580,1
DWC,Jebel Ali,"Jebel Ali, United Arab Emirates - Al Maktoum Intl  (DWC)",Al Maktoum Intl,Jebel Ali,(null),AE,Asia/Dubai,24.8978,55.15905,6080,0
XHM,"Georgetown, ON Canada","Georgetown, ON Canada - Rail Service (XHM)",Georgetown GO,Georgetown,ON,CA,America/Montreal,43.655278,-79.918889,15995,1
XJI,"Ciudad Real, Spain","Ciudad Real, Spain - Ciudad Real Railway  (XJI)",Ciudad Real,Ciudad Real,(null),ES,Europe/Madrid,38.986668,-3.913889,42385,1
QKU,"Cologne, Germany","Cologne, Germany - Railway Service (QKU)",Koln Messe/Deutz,Cologne,(null),DE,Europe/Berlin,50.940833,6.975,14508,1
NKT,"Sirnak, Turkey","Sirnak, Turkey - Sirnak Serafettin Elci (NKT)",Sirnak Serafettin Elci,Sirnak,(null),TR,Europe/Istanbul,37.3639,42.05987,87387,0
NYA,"Nyagan, Russian Federation","Nyagan, Russian Federation - Nyagan (NYA)",Nyagan,Nyagan,(null),RU,Asia/Yekaterinburg,62.11,65.615,81999,0
XGZ,"Bregenz, Austria","Bregenz, Austria - Bregenz (XGZ)",Bregenz,Bregenz,(null),AT,Europe/Vienna,47.5062116,9.7480492,31211,1
0BF,Itri,Itri,Itri,Itri,(null),IT,Europe/Rome,41.271398,13.545686,58491,1
0BL,Fondi-sperlonga,Fondi-sperlonga,Fondi-Sperlonga,Sperlonga,(null),IT,Europe/Rome,41.337809,13.424947,56648,1
0BM,Sezze Romano,Sezze Romano,Sezze Romano,Sermoneta,(null),IT,Europe/Rome,41.495304,13.038461,310272,1
0CG,Noceto,Noceto,Noceto,Noceto,(null),IT,Europe/Rome,44.809866,10.14712,27617,1
0CJ,Monfalcone,Monfalcone,Monfalcone,Monfalcone,(null),IT,Europe/Rome,45.807473,13.543281,65498,1
0CP,Abbiategrasso,Abbiategrasso,Abbiategrasso,Abbiategrasso,(null),IT,Europe/Rome,45.397566,8.920418,60313,1
0CS,Benevento Appia,Benevento Appia,Benevento-Appia,Benevento,(null),IT,Europe/Rome,41.132726,14.766639,41310,1
0CV,Borgoratto,Borgoratto,Borgoratto,Castellazzo Bormida,(null),IT,Europe/Rome,44.836006,8.538192,105887,1
0CZ,Strevi,Strevi,Strevi,Strevi,(null),IT,Europe/Rome,44.69778,8.525527,310240,1
0DN,Rotondi Paolisi,Rotondi Paolisi,Rotondi,Forchia,(null),IT,Europe/Rome,41.0356,14.593024,114655,1
0DX,Latiano,Latiano,Latiano,Latiano,(null),IT,Europe/Rome,40.557915,17.717652,97566,1
0EL,Villasanta,Villasanta,Villasanta,Villasanta,(null),IT,Europe/Rome,45.603436,9.304928,56175,1
0EN,Buttafava,Buttafava,Buttafava,Villasanta,(null),IT,Europe/Rome,45.621418,9.301194,62701,1
0FC,Collecchio,Collecchio,Collecchio,Collecchio,(null),IT,Europe/Rome,44.755337,10.212282,42468,1
0FU,Grondola-guinadi,Grondola-guinadi,Grondola-Guinadi,Montelungo Superiore,(null),IT,Europe/Rome,44.423504,9.84307,74922,1
0GB,Falciano-Mondragone-Carinola,Falciano-Mondragone-Carinola,Falciano-Mondragone-Carinola,Falciano del Massico,(null),IT,Europe/Rome,41.123596,13.971712,81917,1
0GJ,Casoria-afragola,Casoria-afragola,Casoria-Afragola,Casoria,(null),IT,Europe/Rome,40.907578,14.298651,55908,1
0HD,Le Cure,Le Cure,Le Cure,Florence,(null),IT,Europe/Rome,43.786938,11.268052,25345,1
0HF,Mongardino,Mongardino,Mongardino,Mongardino,(null),IT,Europe/Rome,44.84161,8.207411,62733,1
0HN,Bragno,Bragno,Bragno,Carcare,(null),IT,Europe/Rome,44.37168,8.304475,69790,1
0IC,Marcaria,Marcaria,Marcaria,Marcaria,(null),IT,Europe/Rome,45.12452,10.533656,59668,1
0IL,Solarolo,Solarolo,Solarolo,Bagnara di Romagna,(null),IT,Europe/Rome,44.35637,11.849193,300557,1
0JA,Catania Marittima,Catania Marittima,Catania Marittima,Catania,(null),IT,Europe/Rome,37.5055,15.0894,27781,1
0JF,S. Zeno-folzano,S. Zeno-folzano,S. Zeno-folzano,Brescia,(null),IT,Europe/Rome,45.491558,10.211689,10807,1
0JW,S. Teresa Di Riva,S. Teresa Di Riva,Santa Teresa di Riva,Santa Teresa di Riva,(null),IT,Europe/Rome,37.94626,15.367767,305782,1
0KH,Busseto,Busseto,Busseto,Busseto,(null),IT,Europe/Rome,44.97469,10.038909,304870,1
0KW,Cuzzago,Cuzzago,Cuzzago,Premosello-Chiovenda,(null),IT,Europe/Rome,45.993799,8.372879,81978,1
0LJ,Chiaravalle,Chiaravalle,Chiaravalle,Camerata Picena,(null),IT,Europe/Rome,43.595756,13.327555,106012,1
0LO,Castelplanio-Cupramontana,Castelplanio-Cupramontana,Castelplanio-Cupramontana,Maiolati Spontini,(null),IT,Europe/Rome,43.481566,13.084635,317682,1
0LP,Giampilieri,Giampilieri,Giampilieri,Galati Marina,(null),IT,Europe/Rome,38.063812,15.479538,32453,1
0LS,Matrice-Montagano-S.G. in Galdo,Matrice-Montagano-S.G. in Galdo,Matrice-Montagano-S. Giovanni in Galdo,Ripalimosani,(null),IT,Europe/Rome,41.621346,14.699372,114271,1
0LX,Casacalenda-Guardialfiera,Casacalenda-Guardialfiera,Casacalenda-Guardialfiera,Guardialfiera,(null),IT,Europe/Rome,41.73819,14.849437,317656,1
0ME,Sesto Calende,Sesto Calende,Sesto Calende,Sesto Calende,(null),IT,Europe/Rome,45.726242,8.628138,63183,1
0ML,Ururi-rotello,Ururi-rotello,Ururi-rotello,Larino,(null),IT,Europe/Rome,41.799988,14.953077,311964,1
0NG,Gualdo Tadino,Gualdo Tadino,Gualdo Tadino,Gualdo Tadino,(null),IT,Europe/Rome,43.23329,12.767205,61294,1
0NO,Vulcano Porto,Vulcano Porto,Vulcano Porto,Vulcano,(null),IT,Europe/Rome,38.3977,14.9712,54982,1
0OD,Rho,Rho,Rho,Rho,(null),IT,Europe/Rome,45.52382,9.043575,56090,1
0OQ,Acireale,Acireale,Acireale,Acireale,(null),IT,Europe/Rome,37.595805,15.161535,40429,1
0OZ,Mascali,Mascali,Mascali,Mascali,(null),IT,Europe/Rome,37.76405,15.1942,62418,1
0PK,Salassa-s.ponso,Salassa-s.ponso,Salassa-s.ponso,Rivarolo Canavese,(null),IT,Europe/Rome,45.350959,7.679041,115378,1
0PL,Favria-Oglianico,Favria-Oglianico,Favria,Rivarolo Canavese,(null),IT,Europe/Rome,45.336757,7.690143,106458,1
0PR,Bosconero,Bosconero,Bosconero,Foglizzo,(null),IT,Europe/Rome,45.267525,7.761951,105891,1
0PU,Volpiano,Volpiano,Volpiano,Volpiano,(null),IT,Europe/Rome,45.20076,7.779825,301598,1
0PV,Magenta,Magenta,Magenta,Robbio,(null),IT,Europe/Rome,45.468096,8.880742,45646,1
0QI,Padova,Padova,Padova,Noventa Padovana,(null),IT,Europe/Rome,45.41779,11.880803,22918,1
0QS,Cesena,Cesena,Cesena,Cesena,(null),IT,Europe/Rome,44.14535,12.249647,29007,1
0QU,Le Piagge,Le Piagge,Le Piagge,Scandicci,(null),IT,Europe/Rome,43.789818,11.174638,25345,1
0RO,Valledolmo,Valledolmo,Valledolmo,Vallelunga Pratameno,(null),IT,Europe/Rome,37.708603,13.75603,312470,1
0RQ,Rionero-atella-rip.,Rionero-atella-rip.,Rionero Atella Ripacandita,Rionero in Vulture,(null),IT,Europe/Rome,40.922052,15.678547,81189,1
0ST,S. Damiano D'asti,S. Damiano D'asti,S. Damiano D'asti,San Damiano d'Asti,(null),IT,Europe/Rome,44.87892,8.125956,73333,1
0TD,Rimini,Rimini,Rimini,Rimini,(null),IT,Europe/Rome,44.064034,12.574098,27638,1
0TG,S. Martino Piana,S. Martino Piana,S. Martino Piana,Motta Sant'Anastasia,(null),IT,Europe/Rome,37.455796,14.996863,63506,1
0TL,Fara Sabina-Montelibretti,Fara Sabina-Montelibretti,Fara Sabina-Montelibretti,Passo Corese,(null),IT,Europe/Rome,42.155588,12.648143,84006,1
0TM,Monterotondo-mentana,Monterotondo-mentana,Monterotondo-Mentana,Monterotondo,(null),IT,Europe/Rome,42.063946,12.59576,56029,1
0TN,S. Ilario D'enza,S. Ilario D'enza,Sant'Ilario d'Enza,Sant'Ilario D'Enza,(null),IT,Europe/Rome,44.7658,10.450473,48285,1
0TV,Zinasco Nuovo,Zinasco Nuovo,Zinasco Nuovo,Gropello Cairoli,(null),IT,Europe/Rome,45.12456,8.999667,300455,1
0TY,Gallese Teverina,Gallese Teverina,Gallese in Teverina,Gallese,(null),IT,Europe/Rome,42.380783,12.439736,55964,1
0UI,Carbonara Scrivia,Carbonara Scrivia,Carbonara Scrivia,Carbonara Scrivia,(null),IT,Europe/Rome,44.86018,8.853776,312825,1
0UR,Longarone-zoldo,Longarone-zoldo,Longarone-Zoldo,Longarone,(null),IT,Europe/Rome,46.267365,12.301953,307144,1
0VO,Melfi,Melfi,Melfi,Melfi,(null),IT,Europe/Rome,40.989925,15.647017,70351,1
0VU,Adria,Adria,Adria,Adria (Veneto),(null),IT,Europe/Rome,45.060505,12.05423,305570,1
0WE,Mezzano,Mezzano,Mezzano,Il Magazzeno,(null),IT,Europe/Rome,44.462925,12.098509,312385,1
0WV,Cesenatico,Cesenatico,Cesenatico,Cesenatico,(null),IT,Europe/Rome,44.20054,12.391196,42188,1
0XG,Carini-torre Ciachea,Carini-torre Ciachea,Carini-Torre Ciachea,Capaci,(null),IT,Europe/Rome,38.163748,13.218535,65448,1
0YE,Tor Vergata,Tor Vergata,Tor Vergata,Torre Gaia,(null),IT,Europe/Rome,41.823067,12.666167,315614,1
0YO,Terno,Terno,Terno,Bonate Sopra,(null),IT,Europe/Rome,45.68866,9.536172,311565,1
0YT,Magadino-vira,Magadino-vira,Magadino-Vira,Magadino,(null),CH,Europe/Zurich,46.14528,8.850278,48209,1
0ZB,Riva Trigoso,Riva Trigoso,Riva Trigoso,Casarza Ligure,(null),IT,Europe/Rome,44.263912,9.429281,18409,1
1AN,Roccasecca,Roccasecca,Roccasecca,Roccasecca,(null),IT,Europe/Rome,41.526512,13.645902,81887,1
1AS,Ferentino-supino,Ferentino-supino,Ferentino-Supino,Ferentino,(null),IT,Europe/Rome,41.656468,13.247047,300488,1
1BH,Raiano,Raiano,Raiano,Raiano,(null),IT,Europe/Rome,42.098011,13.809114,81881,1
1CC,Vibonati,Vibonati,Vibonati,Vibonati,(null),IT,Europe/Rome,40.1002,15.5823,62353,1
1CJ,Valeriano,Valeriano,Valeriano,Valeriano,(null),IT,Europe/Rome,46.1706,12.9242,311699,1
1CL,Sandigliano,Sandigliano,Sandigliano,Sandigliano,(null),IT,Europe/Rome,45.519479,8.081162,65484,1
1CN,Minturno-scauri,Minturno-scauri,Minturno-Scauri,Minturno,(null),IT,Europe/Rome,41.257872,13.720737,59736,1
1DA,Grumo Appula,Grumo Appula,Grumo Appula,Toritto,(null),IT,Europe/Rome,41.015157,16.718917,318225,1
1DB,Vaccareccia,Vaccareccia,Vaccareccia,Amola,(null),IT,Europe/Rome,44.2403,10.0189,91905,1
1DX,Tarvisio Citta',Tarvisio Citta',Tarvisio Citta',Tarvisio,(null),IT,Europe/Rome,46.4998,13.5784,63497,1
1EK,Spinazzola Citta',Spinazzola Citta',Spinazzola Citta',Banzi,(null),IT,Europe/Rome,40.9638,16.0918,309261,1
1EQ,Bellinzago,Bellinzago,Bellinzago,Oleggio,(null),IT,Europe/Rome,45.56668,8.627663,105565,1
1ET,Dueville,Dueville,Dueville,Caldogno,(null),IT,Europe/Rome,45.634964,11.546113,103626,1
1GA,Castel Di Sangro,Castel Di Sangro,Castel di Sangro,Castel di Sangro,(null),IT,Europe/Rome,41.777941,14.112503,63240,1
1GD,Prata-pratola,Prata-pratola,Prata-pratola,Montefalcione,(null),IT,Europe/Rome,40.988539,14.842603,114639,1
1GV,Lunghezza,Lunghezza,Lunghezza,Lunghezza,(null),IT,Europe/Rome,41.923215,12.667396,25465,1
1HI,Mortara,Mortara,Mortara,Mortara,(null),IT,Europe/Rome,45.25218,8.731651,304343,1
1HY,Valle Lomellina,Valle Lomellina,Valle Lomellina,Semiana,(null),IT,Europe/Rome,45.150593,8.685881,70879,1
1HZ,Fratte,Fratte,Fratte,Salerno,(null),IT,Europe/Rome,40.699395,14.775585,26233,1
1ID,Sartirana,Sartirana,Sartirana,Semiana,(null),IT,Europe/Rome,45.111732,8.670129,115503,1
1II,Carsoli,Carsoli,Carsoli,Arsoli,(null),IT,Europe/Rome,42.09553,13.080395,317655,1
1JB,Giugliano-qualiano,Giugliano-qualiano,Giugliano-Qualiano,Qualiano,(null),IT,Europe/Rome,40.935048,14.103901,55968,1
1JR,Ovada Nord,Ovada Nord,Ovada Nord,Ovada,(null),IT,Europe/Rome,44.646664,8.644633,56916,1
1JU,S. Giacomo,S. Giacomo,S. Giacomo,Silvano d'Orba,(null),IT,Europe/Rome,44.68775,8.663186,78483,1
1JX,Napoli Piazza Leopardi,Napoli Piazza Leopardi,Napoli Piazza Leopardi,Naples,(null),IT,Europe/Rome,40.824762,14.200437,18758,1
1KP,Omegna,Omegna,Omegna,Omegna,(null),IT,Europe/Rome,45.871796,8.413294,13971,1
1KQ,Orta-miasino,Orta-miasino,Orta-Miasino,Orta San Giulio,(null),IT,Europe/Rome,45.795868,8.421223,46902,1
1KX,Morcone,Morcone,Morcone,Morcone,(null),IT,Europe/Rome,41.340474,14.677445,46260,1
1LI,Pracchia,Pracchia,Pracchia,Pontepetri,(null),IT,Europe/Rome,44.05478,10.906913,14937,1
1LY,Calde,Calde,Calde,Castelveccana,(null),IT,Europe/Rome,45.945664,8.663217,88303,1
1MA,Luino,Luino,Luino,Luino,(null),IT,Europe/Rome,45.996647,8.737467,45563,1
1MI,Annone Veneto,Annone Veneto,Annone Veneto,Santo Stino di Livenza,(null),IT,Europe/Rome,45.774864,12.680138,105344,1
1NJ,Casteldebole,Casteldebole,Casteldebole,Casalecchio di Reno,(null),IT,Europe/Rome,44.503786,11.274533,4001,1
1NN,Silla,Silla,Silla,Coreglia Antelminelli,(null),IT,Europe/Rome,44.104,10.5849,309251,1
1NU,Tempio Vulcano,Tempio Vulcano,Tempio Vulcano,Agrigento,(null),IT,Europe/Rome,37.292416,13.579557,35604,1
1NZ,Sciara-aliminusa,Sciara-aliminusa,Sciara - Aliminusa,Cerda,(null),IT,Europe/Rome,37.903195,13.774199,85228,1
1OH,Mogliano Veneto,Mogliano Veneto,Mogliano Veneto,Mogliano Veneto,(null),IT,Europe/Rome,45.561874,12.232752,46120,1
1OU,S. Candido Innichen,S. Candido Innichen,S. Candido Innichen,San Candido,(null),IT,Europe/Rome,46.732628,12.27192,48158,1
1PK,Orsago,Orsago,Orsago,Orsago,(null),IT,Europe/Rome,45.927948,12.434264,79357,1
1PL,Pianzano,Pianzano,Pianzano,Godega di Sant'Urbano,(null),IT,Europe/Rome,45.91329,12.388175,59549,1
1PM,Cusano,Cusano,Cusano,Fiume Veneto,(null),IT,Europe/Rome,45.945524,12.757432,318106,1
1PU,Vandoies Vintl,Vandoies Vintl,Vandoies Vintl,Vandoies (Vintl),(null),IT,Europe/Rome,46.814777,11.723086,300452,1
1QD,Catanzaro,Catanzaro,Catanzaro-Sala,Catanzaro,(null),IT,Europe/Rome,38.896319,16.599166,20557,1
1QL,Polignano A Mare,Polignano A Mare,Polignano a Mare,Polignano a Mare,(null),IT,Europe/Rome,40.990929,17.218677,47306,1
1QP,Bari Parco Sud,Bari Parco Sud,Bari-Parco Sud,Terlizzi,(null),IT,Europe/Rome,41.115051,16.897985,18302,1
1QT,Cerreto D'esi,Cerreto D'esi,Cerreto d'Esi,Cerreto d'Esi,(null),IT,Europe/Rome,43.322053,12.983283,79210,1
1QW,Castelraimondo-Camerino,Castelraimondo-Camerino,Castelraimondo-Camerino,Castelraimondo,(null),IT,Europe/Rome,43.210274,13.057278,65649,1
1RC,Isola Delle Femmine,Isola Delle Femmine,Isola delle Femmine,Isola delle Femmine,(null),IT,Europe/Rome,38.19449,13.250198,62146,1
1RO,Spezzano Albanese Terme,Spezzano Albanese Terme,Spezzano Albanese Terme,Spezzano Albanese,(null),IT,Europe/Rome,39.704697,16.287605,81151,1
1RP,Bisceglie,Bisceglie,Bisceglie,Bisceglie,(null),IT,Europe/Rome,41.235538,16.499463,41432,1
1RS,Pratola Peligna,Pratola Peligna,Pratola Peligna,Pratola Peligna,(null),IT,Europe/Rome,42.102631,13.876242,302488,1
1RT,Bari S. Spirito,Bari S. Spirito,Bari-Santo Spirito,Santo Spirito,(null),IT,Europe/Rome,41.159723,16.746248,308373,1
1RW,Torre Dei Passeri,Torre Dei Passeri,Torre Dei Passeri,Tocco da Casauria,(null),IT,Europe/Rome,42.243484,13.937534,305160,1
1SM,Vespri,Vespri,Vespri,Palermo,(null),IT,Europe/Rome,38.101772,13.362506,14184,1
1TB,Marausa,Marausa,Marausa,Marausa,(null),IT,Europe/Rome,37.926534,12.504205,311771,1
1TC,Mongrassano-cervicat,Mongrassano-cervicat,Mongrassano-cervicat,Bisignano,(null),IT,Europe/Rome,39.538532,16.22244,306465,1
1TQ,Castelvetrano,Castelvetrano,Castelvetrano,Castelvetrano,(null),IT,Europe/Rome,37.685013,12.7992,5530,1
1TR,Sermide,Sermide,Sermide,Sermide,(null),IT,Europe/Rome,44.996403,11.290818,315321,1
1TY,Castronno,Castronno,Castronno,Castronno,(null),IT,Europe/Rome,45.74524,8.810308,83119,1
1UC,Sassoferrato-arcevia,Sassoferrato-arcevia,Sassoferrato-Arcevia,Sassoferrato,(null),IT,Europe/Rome,43.436343,12.851266,69791,1
1UK,Bondeno,Bondeno,Bondeno,Sette Polesini,(null),IT,Europe/Rome,44.901773,11.411112,105755,1
1US,Capralba,Capralba,Capralba,Misano di Gera d'Adda,(null),IT,Europe/Rome,45.44353,9.640006,105936,1
1VZ,Venezia Carpenedo,Venezia Carpenedo,Venezia Carpenedo,Mestre,(null),IT,Europe/Rome,45.506603,12.247609,8997,1
1WE,Segesta-tempio,Segesta-tempio,Segesta-tempio,Brucanuova,(null),IT,Europe/Rome,37.94939,12.828127,83218,1
1WQ,Milano Porta Vittor.,Milano Porta Vittor.,Milano Porta Vittoria,Milan,(null),IT,Europe/Rome,45.459901,9.223899,53596,1
1WS,Perugia Capitini,Perugia Capitini,Perugia Capitini,Perugia,(null),IT,Europe/Rome,43.102306,12.35587,12468,1
1XG,Nichelino,Nichelino,Nichelino,Nichelino,(null),IT,Europe/Rome,44.99132,7.642079,56046,1
1XK,Milano Porta Venezia,Milano Porta Venezia,Milano Porta Venezia,Milan,(null),IT,Europe/Rome,45.476474,9.208118,53596,1
1XS,Quarona,Quarona,Quarona,Quarona,(null),IT,Europe/Rome,45.763554,8.266613,76664,1
1YJ,Madignano,Madignano,Madignano,Sergnano,(null),IT,Europe/Rome,45.34383,9.730181,114262,1
1YK,Levate,Levate,Levate,Comun Nuovo,(null),IT,Europe/Rome,45.62516,9.628803,114179,1
1YM,Stezzano,Stezzano,Stezzano,Stezzano,(null),IT,Europe/Rome,45.651848,9.652261,56140,1
1YN,Passignano sul Trasimeno,Passignano sul Trasimeno,Passignano Sul Trasimeno,Passignano Sul Trasimeno,(null),IT,Europe/Rome,43.188429,12.133327,47071,1
1YV,Ellera-corciano,Ellera-corciano,Ellera-Corciano,Ellera (Umbria),(null),IT,Europe/Rome,43.094593,12.318577,42542,1
1YW,Perugia,Perugia,Perugia,Perugia,(null),IT,Europe/Rome,43.1037,12.375579,12468,1
1ZF,San Donato Milanese,San Donato Milanese,San Donato Milanese,San Donato Milanese,(null),IT,Europe/Rome,45.41799,9.253992,48168,1
1ZR,Roccadebaldi,Roccadebaldi,Roccadebaldi,Mondovi,(null),IT,Europe/Rome,44.41045,7.78046,56671,1
2AF,Crespino Del Lamone,Crespino Del Lamone,Crespino del Lamone,Marradi,(null),IT,Europe/Rome,44.041803,11.548238,300784,1
2AG,Montorsoli,Montorsoli,Montorsoli,Vaglia,(null),IT,Europe/Rome,43.835728,11.282934,308208,1
2AU,Biforco,Biforco,Biforco,Marradi,(null),IT,Europe/Rome,44.068394,11.602252,300784,1
2AW,Milano Dateo,Milano Dateo,Milano Dateo,Milan,(null),IT,Europe/Rome,45.468147,9.217034,53596,1
2BC,Rocca Ravindola,Rocca Ravindola,Rocca Ravindola,Pozzilli,(null),IT,Europe/Rome,41.52095,14.123047,114649,1
2BE,Milano City,Milano City,Milano City,Rognano,(null),IT,Europe/Rome,45.2911,9.1215,77771,1
2CI,Montella,Montella,Montella,Montella,(null),IT,Europe/Rome,40.845066,15.032614,300793,1
2CJ,Montemarano,Montemarano,Montemarano,Montella,(null),IT,Europe/Rome,40.900756,15.039403,114579,1
2CP,Conza-Andretta-Cairano,Conza-Andretta-Cairano,Conza-Andretta-Cairano,Calitri,(null),IT,Europe/Rome,40.883489,15.343529,317886,1
2DY,Castelnuovo del Garda,Castelnuovo del Garda,Castelnuovo del Garda,Castelnuovo del Garda,(null),IT,Europe/Rome,45.430836,10.758284,42104,1
2EE,Cuna,Cuna,Cuna,Monteroni D'Arbia,(null),IT,Europe/Rome,43.242922,11.406583,46218,1
2EO,Ponte S. Marco-Calcinato,Ponte S. Marco-Calcinato,Ponte S. Marco-Calcinato,Calcinato,(null),IT,Europe/Rome,45.473785,10.409023,81941,1
2ER,Borgo S. Lorenzo-Rimorelli,Borgo S. Lorenzo-Rimorelli,Borgo S. Lorenzo-Rimorelli,Borgo San Lorenzo,(null),IT,Europe/Rome,43.953702,11.398749,41577,1
2FL,Ora Auer,Ora Auer,Ora Auer,Ora,(null),IT,Europe/Rome,46.360837,11.297181,56052,1
2FN,Magre'-cort/marg.-k,Magre'-cort/marg.-k,Magre-Cortaccia/Margreid-Kurtatsch,Magre all'Adige,(null),IT,Europe/Rome,46.28796,11.232652,312013,1
2FQ,Sevegliano,Sevegliano,Sevegliano,Palmanova,(null),IT,Europe/Rome,45.88715,13.304688,63028,1
2FS,Limone,Limone,Limone,Limone Piemonte,(null),IT,Europe/Rome,44.204381,7.577214,45361,1
2FV,Roccavivi,Roccavivi,Roccavivi,San Vincenzo Valle Roveto,(null),IT,Europe/Rome,41.818032,13.544991,81188,1
2FZ,Fontana Liri,Fontana Liri,Fontana Liri,Monte San Giovanni Campano,(null),IT,Europe/Rome,41.61815,13.562027,106487,1
2HW,Rovereto,Rovereto,Rovereto,Rovereto,(null),IT,Europe/Rome,45.890972,11.033528,56100,1
2IR,Sarre,Sarre,Sarre,Sarre,(null),IT,Europe/Rome,45.71792,7.258473,74964,1
2IV,Sorgenti del Peschiera,Sorgenti del Peschiera,Sorgenti del Peschiera,Rocca Ranieri,(null),IT,Europe/Rome,42.364048,12.996977,91121,1
2IW,Antrodoco Centro,Antrodoco Centro,Antrodoco-Centro,Terminillo,(null),IT,Europe/Rome,42.415412,13.076209,105346,1
2JD,Soverato,Soverato,Soverato,Soverato,(null),IT,Europe/Rome,38.68133,16.549423,62854,1
2KI,Rodallo,Rodallo,Rodallo,Caluso,(null),IT,Europe/Rome,45.278713,7.878033,114652,1
2KQ,Settimo-tavagnasco,Settimo-tavagnasco,Settimo-tavagnasco,Settimo Vittone,(null),IT,Europe/Rome,45.54622,7.825194,81979,1
2LN,Rocca Imperiale,Rocca Imperiale,Rocca Imperiale,Rocca Imperiale,(null),IT,Europe/Rome,40.10022,16.615678,74911,1
2LZ,Cavaria-Oggiona-Ierago,Cavaria-Oggiona-Ierago,Cavaria-Oggiona-Lerago,Solbiate Arno,(null),IT,Europe/Rome,45.69815,8.803506,105968,1
2MO,Africo Nuovo,Africo Nuovo,Africo Nuovo,Brancaleone,(null),IT,Europe/Rome,38.052673,16.143903,317595,1
2NA,Reggio di Calabria Pellaro,Reggio di Calabria Pellaro,Reggio di Calabria Pellaro,Reggio Calabria,(null),IT,Europe/Rome,38.025433,15.650154,47701,1
2NF,Albano Di Lucania,Albano Di Lucania,Albano di Lucania,Trivigno,(null),IT,Europe/Rome,40.574696,16.021231,105308,1
2NM,Pignataro Maggiore,Pignataro Maggiore,Pignataro Maggiore,Pastorano,(null),IT,Europe/Rome,41.173893,14.160705,114629,1
2NR,Campomaggiore-Pietrapertosa,Campomaggiore-Pietrapertosa,Campomaggiore-Pietrapertosa,Campomaggiore,(null),IT,Europe/Rome,40.550907,16.086719,91831,1
2NS,Tora-presenzano,Tora-presenzano,Tora-presenzano,Presenzano,(null),IT,Europe/Rome,41.358276,14.045147,84119,1
2NZ,Riparbella,Riparbella,Riparbella,Riparbella,(null),IT,Europe/Rome,43.339462,10.582195,60600,1
2OI,Gioiosa Jonica,Gioiosa Jonica,Gioiosa Jonica,Marina di Gioiosa Ionica,(null),IT,Europe/Rome,38.299963,16.330834,64369,1
2OO,Castellaneta Marina,Castellaneta Marina,Castellaneta Marina,Castellaneta Marina,(null),IT,Europe/Rome,40.481104,16.965004,42096,1
2OT,S.crist.lago-ischia,S.crist.lago-ischia,S.Cristoforo al L.-Ischia,Pergine Valsugana,(null),IT,Europe/Rome,46.039726,11.233759,65461,1
2OV,Villazzano,Villazzano,Villazzano,Civezzano,(null),IT,Europe/Rome,46.045895,11.139064,70801,1
2OY,Fornaci Di Barga,Fornaci Di Barga,Fornaci di Barga,Gallicano,(null),IT,Europe/Rome,44.04525,10.473177,41168,1
2PA,Barga-gallicano,Barga-gallicano,Barga-Gallicano,Gallicano,(null),IT,Europe/Rome,44.068115,10.451941,41168,1
2PB,Castelnuovo di Garfagnana,Castelnuovo di Garfagnana,Castelnuovo di Garfagnana,Castelnuovo di garfagnana,(null),IT,Europe/Rome,44.116352,10.409059,55916,1
2PF,Borgo A Mozzano,Borgo A Mozzano,Borgo a Mozzano,Borgo a Mozzano,(null),IT,Europe/Rome,43.977203,10.54129,55885,1
2PI,Mi. Smistamento,Mi. Smistamento,Mi. Smistamento,Certosa di Pavia,(null),IT,Europe/Rome,45.283,9.161,63340,1
2PW,Romano,Romano,Romano,Romano di Lombardia,(null),IT,Europe/Rome,45.52384,9.753408,300564,1
2QI,Cassano D'adda,Cassano D'adda,Cassano d'Adda,Cassano d'Adda,(null),IT,Europe/Rome,45.514378,9.512755,61341,1
2QJ,Treviglio,Treviglio,Treviglio,Treviglio,(null),IT,Europe/Rome,45.515064,9.58792,23436,1
2QK,Melzo,Melzo,Melzo,Melzo,(null),IT,Europe/Rome,45.502076,9.41917,62834,1
2QZ,Dossobuono,Dossobuono,Dossobuono,Dossobuono,(null),IT,Europe/Rome,45.39238,10.914838,60995,1
2RF,Ospitaletto-travagl.,Ospitaletto-travagl.,Ospitaletto Travagliato,Castegnato,(null),IT,Europe/Rome,45.546047,10.074364,114614,1
2RN,Rocca Di Fondi,Rocca Di Fondi,Rocca Di Fondi,Rocca Ranieri,(null),IT,Europe/Rome,42.397947,13.095922,105346,1
2SC,Bardonecchia,Bardonecchia,Bardonecchia,Bardonecchia,(null),IT,Europe/Rome,45.076424,6.70997,41162,1
2SH,Marmore,Marmore,Marmore,Arrone,(null),IT,Europe/Rome,42.54739,12.715167,114270,1
2SU,Collegno,Collegno,Collegno,Collegno,(null),IT,Europe/Rome,45.078854,7.574138,74887,1
2TC,S. Ambrogio,S. Ambrogio,S. Ambrogio,Caprie,(null),IT,Europe/Rome,45.10116,7.360932,13332,1
2TM,Scerne Di Pineto,Scerne Di Pineto,Scerne di Pineto,Scerne,(null),IT,Europe/Rome,42.642424,14.041343,314666,1
2TT,Roma Trastevere,Roma Trastevere,Roma Trastevere,Vatican,(null),IT,Europe/Rome,41.872154,12.466169,25465,1
2TY,Muratella,Muratella,Muratella,Acilia,(null),IT,Europe/Rome,41.82483,12.408593,25465,1
2TZ,Scanzano J.-montal.j,Scanzano J.-montal.j,Scanzano Jonico-Montalbano Jonico,Scanzano Jonico,(null),IT,Europe/Rome,40.253613,16.705405,48414,1
2UB,Villabartolomea,Villabartolomea,Villabartolomea,Villa Bartolomea,(null),IT,Europe/Rome,45.153034,11.348732,300454,1
2VG,Costa,Costa,Costa,Fratta Polesine,(null),IT,Europe/Rome,45.045727,11.696512,317961,1
2VM,Lendinara,Lendinara,Lendinara,Fratta Polesine,(null),IT,Europe/Rome,45.081776,11.59167,318384,1
2VQ,Sella Di Corno,Sella Di Corno,Sella Di Corno,Menzano,(null),IT,Europe/Rome,42.360184,13.18988,313067,1
2XI,Boschi S. Anna,Boschi S. Anna,Boschi Sant'Anna,Bevilacqua,(null),IT,Europe/Rome,45.217426,11.362269,105889,1
2XM,S. Stefano di Camastra-Mistretta,S. Stefano di Camastra-Mistretta,Santo Stefano di Camastra-Mistretta,Santo Stefano di Camastra,(null),IT,Europe/Rome,38.017384,14.351768,60989,1
2YA,S. Giovanni Di Casar,S. Giovanni Di Casar,S. Giovanni di Casarsa,Casarsa della delizia,(null),IT,Europe/Rome,45.941701,12.836145,55906,1
2YD,San Paolo,San Paolo,San Paolo,Galati Marina,(null),IT,Europe/Rome,38.070447,15.487295,309135,1
2YU,Quiliano-vado Ligure,Quiliano-vado Ligure,Quiliano Vado,Vado Ligure,(null),IT,Europe/Rome,44.279938,8.435563,61557,1
2YX,Bologna S. Donato,Bologna S. Donato,Bologna S. Donato,Bologna,(null),IT,Europe/Rome,44.4956,11.3475,4001,1
2ZB,Rometta Messinese,Rometta Messinese,Rometta M.,Spadafora,(null),IT,Europe/Rome,38.228587,15.405834,65605,1
3AA,Genova Costa di Sestri Ponente,Genova Costa di Sestri Ponente,Genoa-Costa di Sestri Ponente,Sestri Ponente,(null),IT,Europe/Rome,44.433536,8.845729,93596,1
3AB,San Remo,San Remo,San Remo,San Remo,(null),IT,Europe/Rome,43.822236,7.784192,13073,1
3AN,Mele,Mele,Mele,Masone,(null),IT,Europe/Rome,44.4728,8.733961,114273,1
3AZ,Laigueglia,Laigueglia,Laigueglia,Laigueglia,(null),IT,Europe/Rome,43.981285,8.158687,45043,1
3BL,Luogosano-S. Mango sul Calore,Luogosano-S. Mango sul Calore,Luogosano-S. Mango sul Calore,Castelvetere sul Calore,(null),IT,Europe/Rome,40.980511,14.994277,114184,1
3BN,Altavilla Milicia,Altavilla Milicia,Altavilla Milicia,Altavilla Milicia,(null),IT,Europe/Rome,38.048004,13.554428,60295,1
3BO,Termini Imerese,Termini Imerese,Termini Imerese,Termini Imerese,(null),IT,Europe/Rome,37.97969,13.703634,49350,1
3CC,Villabate-ficar.,Villabate-ficar.,Villabate-ficar.,Monreale,(null),IT,Europe/Rome,38.0511,13.2705,56016,1
3CP,Venzone,Venzone,Venzone,Venzone,(null),IT,Europe/Rome,46.331627,13.135502,71544,1
3DJ,Spartimento di Scisciano,Spartimento di Scisciano,Spartimento di Scisciano,Castello di Cisterna,(null),IT,Europe/Rome,40.89156,14.468487,21072,1
3DL,Asciano-Monte Oliveto Maggiore,Asciano-Monte Oliveto Maggiore,Asciano-Monte Oliveto Maggiore,Asciano,(null),IT,Europe/Rome,43.231735,11.563485,55870,1
3EM,Santa Luce,Santa Luce,Santa Luce,Val di Perga,(null),IT,Europe/Rome,43.437244,10.489709,56099,1
3FD,S. Maria Delle Mole,S. Maria Delle Mole,S. Maria Delle Mole,Frattocchie,(null),IT,Europe/Rome,41.774336,12.60613,25465,1
3FG,Genova Piazza Principe Sotterranea,Genova Piazza Principe Sotterranea,Genoa-Piazza Principe Sotterranea,Genoa,(null),IT,Europe/Rome,44.415766,8.919515,6888,1
3GE,Carrara-avenza,Carrara-avenza,Carrara-Avenza,Carrara,(null),IT,Europe/Rome,44.051243,10.062935,100069,1
3GF,Castel Gandolfo,Castel Gandolfo,Castel Gandolfo,Castel gandolfo,(null),IT,Europe/Rome,41.74693,12.652104,55911,1
3HB,Sanfre,Sanfre,Sanfre,Sommariva del Bosco,(null),IT,Europe/Rome,44.74799,7.796793,115390,1
3HL,Villa Claudia,Villa Claudia,Villa Claudia,Lavinio,(null),IT,Europe/Rome,41.484177,12.617101,84022,1
3IF,S.basilio Mottola,S.basilio Mottola,S.basilio Mottola,Mottola,(null),IT,Europe/Rome,40.696716,16.974146,61996,1
3IW,Certaldo,Certaldo,Certaldo,Certaldo,(null),IT,Europe/Rome,43.54711,11.037722,55926,1
3JD,Ponte A Elsa,Ponte A Elsa,Ponte A Elsa,Monterappoli,(null),IT,Europe/Rome,43.69438,10.906008,61989,1
3KJ,S. Felice Sul Panaro,S. Felice Sul Panaro,San Felice sul Panaro,San Felice sul Panaro,(null),IT,Europe/Rome,44.83451,11.140246,310049,1
3KY,Gravina In Puglia,Gravina In Puglia,Gravina in Puglia,Gravina in Puglia,(null),IT,Europe/Rome,40.825083,16.418819,61040,1
3LM,Policastro Bussent.,Policastro Bussent.,Policastro Bussentino,Policastro Bussentino,(null),IT,Europe/Rome,40.076617,15.528351,300582,1
3LT,Maltignano,Maltignano,Maltignano,Folignano,(null),IT,Europe/Rome,42.844848,13.664744,21840,1
3LW,Sampieri,Sampieri,Sampieri,Sampieri,(null),IT,Europe/Rome,36.732002,14.744585,62633,1
3MC,Vallo Lucania-castel,Vallo Lucania-castel,Vallo Lucania-castel,Castelnuovo Cilento,(null),IT,Europe/Rome,40.228294,15.15805,63529,1
3ME,S.germano Vercellese,S.germano Vercellese,S.Germano Vercellese,Santhia,(null),IT,Europe/Rome,45.353496,8.249948,115119,1
3MG,Agropoli-castellabat,Agropoli-castellabat,Agropoli-Castellabate,Agropoli,(null),IT,Europe/Rome,40.351639,15.001713,40473,1
3MP,Osteria Nuova,Osteria Nuova,Osteria Nuova,Sacerno,(null),IT,Europe/Rome,44.584947,11.23524,41906,1
3MR,Roncanova Gazzo Ver.,Roncanova Gazzo Ver.,Roncanova di Gazzo Veronese,Gazzo Veronese,(null),IT,Europe/Rome,45.14221,11.097995,83467,1
3ND,Falerna,Falerna,Falerna,Falerna,(null),IT,Europe/Rome,38.970768,16.15004,43226,1
3NO,Modica,Modica,Modica,Modica,(null),IT,Europe/Rome,36.853053,14.754057,58127,1
3NU,Ragusa Ibla,Ragusa Ibla,Ragusa Ibla,Ragusa,(null),IT,Europe/Rome,36.931415,14.750867,47628,1
3OC,Comiso,Comiso,Comiso,Comiso,(null),IT,Europe/Rome,36.947209,14.600413,52294,1
3OE,Albaredo,Albaredo,Albaredo,Vedelago,(null),IT,Europe/Rome,45.670308,12.014418,75132,1
3OR,Diamante-buonvicino,Diamante-buonvicino,Diamante-Buonvicino,Diamante,(null),IT,Europe/Rome,39.676978,15.824232,42819,1
3PQ,Franciosa,Franciosa,Franciosa,Picerno,(null),IT,Europe/Rome,40.679008,15.623744,105492,1
3PW,Siena Zona Indu.,Siena Zona Indu.,Siena Zona Indu.,Isola d'Arbia,(null),IT,Europe/Rome,43.26525,11.376652,86779,1
3QI,Resana,Resana,Resana,Levada,(null),IT,Europe/Rome,45.634018,11.964254,114646,1
3QM,Mestre Ospedale,Mestre Ospedale,Mestre Ospedale,Mestre,(null),IT,Europe/Rome,45.5133,12.2503,8997,1
3QN,Pompei,Pompei,Pompei,Pompei,(null),IT,Europe/Rome,40.751112,14.501596,47316,1
3QU,Frasso Telesino Dug.,Frasso Telesino Dug.,Frasso-Dugenta,Dugenta,(null),IT,Europe/Rome,41.137232,14.459318,75050,1
3RA,Solopaca,Solopaca,Solopaca,Solopaca,(null),IT,Europe/Rome,41.209644,14.57142,70904,1
3RE,Vietri S.mare-amalfi,Vietri S.mare-amalfi,Vietri S.mare-amalfi,Vietri Sul Mare,(null),IT,Europe/Rome,40.67401,14.726833,49897,1
3RO,Francavilla A.-fil.,Francavilla A.-fil.,Francavilla Angitola-Filadelfia,Pinetamare,(null),IT,Europe/Rome,38.77806,16.215439,318113,1
3RW,Pontecagnano,Pontecagnano,Pontecagnano,Pontecagnano Faiano,(null),IT,Europe/Rome,40.640344,14.872778,47337,1
3SD,Carpane'-valstagna,Carpane'-valstagna,Carpane-Valstagna,Valstagna,(null),IT,Europe/Rome,45.860085,11.661186,317645,1
3SL,Montebello,Montebello,Montebello,Montebello vicentino,(null),IT,Europe/Rome,45.452488,11.390814,56020,1
3UE,Ipogeo Degli Ottavi,Ipogeo Degli Ottavi,Ipogeo degli Ottavi,La Storta,(null),IT,Europe/Rome,41.968742,12.408955,25465,1
3UK,Caltanissetta Centrale,Caltanissetta Centrale,Caltanissetta-Centrale,Caltanissetta,(null),IT,Europe/Rome,37.488488,14.057524,15580,1
3UR,S.martino-cava,S.martino-cava,San Martino Cava,Castelletto di Branduzzo,(null),IT,Europe/Rome,45.144913,9.11516,56111,1
3UX,Prato Borgonuovo,Prato Borgonuovo,Prato Borgonuovo,Prato,(null),IT,Europe/Rome,43.891453,11.075117,10320,1
3VR,S. Zenone Al Lambro,S. Zenone Al Lambro,San Zenone al Lambro,San Zenone al Lambro,(null),IT,Europe/Rome,45.337843,9.361618,59253,1
3VU,Lodi,Lodi,Lodi,Lodi,(null),IT,Europe/Rome,45.308968,9.497588,25078,1
3VW,Caldiero,Caldiero,Caldiero,Caldiero,(null),IT,Europe/Rome,45.414055,11.169761,59440,1
3WN,Olcio,Olcio,Olcio,Lierna,(null),IT,Europe/Rome,45.938015,9.313905,62518,1
3XM,Bracciano,Bracciano,Bracciano,Bracciano,(null),IT,Europe/Rome,42.103713,12.173229,41632,1
3YB,Porcari,Porcari,Porcari,Porcari,(null),IT,Europe/Rome,43.831264,10.619222,65638,1
3YW,Borgo A Buggiano,Borgo A Buggiano,Borgo a Buggiano,Buggiano,(null),IT,Europe/Rome,43.88072,10.730091,62331,1
3ZG,Marrubiu-Terralba-Arborea,Marrubiu-Terralba-Arborea,Marrubiu-Terralba-Arborea,Marrubiu,(null),IT,Europe/Rome,39.75293,8.641149,306460,1
3ZN,Borore,Borore,Borore,Macomer,(null),IT,Europe/Rome,40.218998,8.809539,105888,1
4AE,Uras-mogoro,Uras-mogoro,Uras-mogoro,Uras,(null),IT,Europe/Rome,39.692635,8.696463,90669,1
4AN,Candia Lomellina,Candia Lomellina,Candia Lomellina,Villanova Monferrato,(null),IT,Europe/Rome,45.179916,8.59316,105931,1
4AW,Cagliari,Cagliari,Cagliari,Cagliari,(null),IT,Europe/Rome,39.216084,9.107992,9377,1
4BD,Terme Euganee-Abano-Montegrotto,Terme Euganee-Abano-Montegrotto,Terme Euganee-Abano-Montegrotto,Montegrotto Terme,(null),IT,Europe/Rome,45.32727,11.79648,46212,1
4BF,Monselice,Monselice,Monselice,Monselice,(null),IT,Europe/Rome,45.24607,11.747893,61283,1
4BN,Travesio,Travesio,Travesio,Travesio,(null),IT,Europe/Rome,46.18695,12.876922,91850,1
4BS,S. Pietro In Casale,S. Pietro In Casale,San Pietro in Casale,San Pietro in Casale,(null),IT,Europe/Rome,44.697906,11.404774,300578,1
4CA,Coronella,Coronella,Coronella,Mirabello,(null),IT,Europe/Rome,44.796047,11.544485,317891,1
4CU,Genova Bolzaneto,Genova Bolzaneto,Genoa-Bolzaneto,Bolzaneto Genova,(null),IT,Europe/Rome,44.459217,8.900204,6888,1
4DA,Novi Ligure,Novi Ligure,Novi Ligure,Novi ligure,(null),IT,Europe/Rome,44.762527,8.7873,56051,1
4FV,"Paris, France","Paris, France - Paris Montparnasse",Paris-Gare de Lyon,Paris,(null),FR,Europe/Paris,48.844715,2.37393,36014,1
4GL,Pedrera,Pedrera,Pedrera,Pedrera,(null),ES,Europe/Madrid,37.222393,-4.893574,309845,1
4GS,Valencia Joaquin Sorolla,Valencia Joaquin Sorolla,Valencia-Joaquin Sorolla,Valencia,(null),ES,Europe/Madrid,39.460029,-0.381682,19900,1
4GZ,Antequera,Antequera,Antequera-Ciudad,Antequera,(null),ES,Europe/Madrid,37.028163,-4.560913,40723,1
4HE,Villalba De Gua,Villalba De Gua,Villalba,Collado Villalba,(null),ES,Europe/Madrid,40.62651,-4.00801,59540,1
4HG,Zarzalejo (apt),Zarzalejo (apt),Zarzalejo,San Lorenzo de El Escorial,(null),ES,Europe/Madrid,40.538754,-4.158297,317513,1
4HH,Robledo De Chav,Robledo De Chav,Robledo de Chavela,Robledo de Chavela,(null),ES,Europe/Madrid,40.520735,-4.24676,60646,1
4HN,Arevalo,Arevalo,Arevalo,Arevalo,(null),ES,Europe/Madrid,41.047122,-4.702005,67072,1
4HZ,Valladolid-Universidad,Valladolid-Universidad,Valladolid-Universidad,Valladolid,(null),ES,Europe/Madrid,41.66026,-4.704053,16237,1
4II,Miranda De Ebro,Miranda De Ebro,Miranda de Ebro,Miranda de Ebro,(null),ES,Europe/Madrid,42.68942,-2.94512,55462,1
4IU,Tolosa,Tolosa,Tolosa,Tolosa (Basque Country),(null),ES,Europe/Madrid,43.135492,-2.079087,67665,1
4JK,Osorno,Osorno,Osorno,Osorno,(null),ES,Europe/Madrid,42.415074,-4.357373,64393,1
4JY,Molledo-portoli,Molledo-portoli,Molledo-Portolin,Molledo,(null),ES,Europe/Madrid,43.145484,-4.03905,90973,1
4JZ,Santa Cruz De I,Santa Cruz De I,Santa Cruz de Iguna,Molledo,(null),ES,Europe/Madrid,43.169342,-4.045083,90973,1
4LN,Aranda De Duero,Aranda De Duero,Aranda de Duero,Aranda de Duero,(null),ES,Europe/Madrid,41.668728,-3.696794,40761,1
4LZ,Vega-magaz,Vega-magaz,Vega-Magaz,Combarros,(null),ES,Europe/Madrid,42.553154,-6.06806,317489,1
4MC,La Granja (apt),La Granja (apt),La Granja,Pobladura de las Regueras,(null),ES,Europe/Madrid,42.614874,-6.282534,315625,1
4ME,Bembibre,Bembibre,Bembibre,Bembibre,(null),ES,Europe/Madrid,42.609563,-6.422171,67105,1
4MI,A Rua-petin,A Rua-petin,A Rua-Petin,A Rua,(null),ES,Europe/Madrid,42.39275,-7.113342,309861,1
4MT,Pontedeume,Pontedeume,Pontedeume,Pontedeume,(null),ES,Europe/Madrid,43.41186,-8.180472,303565,1
4MU,Perlio (apd),Perlio (apd),Perlio,Neda,(null),ES,Europe/Madrid,43.4723,-8.174838,105120,1
4MY,Guillarei,Guillarei,Guillarei,Tuy,(null),ES,Europe/Madrid,42.065673,-8.622538,55486,1
4NH,Plasencia,Plasencia,Plasencia,Plasencia,(null),ES,Europe/Madrid,40.022287,-6.099436,47241,1
4NP,Lalin,Lalin,Lalin,Lalin,(null),ES,Europe/Madrid,42.632626,-8.142812,67115,1
4OC,Gomecello,Gomecello,Gomecello,La Velles,(null),ES,Europe/Madrid,41.041714,-5.541567,104800,1
4OD,Moriscos (apd),Moriscos (apd),Moriscos,Moriscos,(null),ES,Europe/Madrid,41.01164,-5.58472,309708,1
4OQ,Casas De Millan,Casas De Millan,Casas de Millan,Grimaldo,(null),ES,Europe/Madrid,39.812022,-6.32576,104737,1
4PC,Castuera,Castuera,Castuera,Zalamea de la Serena,(null),ES,Europe/Madrid,38.735008,-5.541676,104741,1
4PF,Don Benito,Don Benito,Don Benito,Don Benito,(null),ES,Europe/Madrid,38.966949,-5.862935,67411,1
4PO,Montijo (apd),Montijo (apd),Montijo-El Molino,Montijo,(null),ES,Europe/Madrid,38.913977,-6.618324,85770,1
4PY,Guadalcanal,Guadalcanal,Guadalcanal,Guadalcanal,(null),ES,Europe/Madrid,38.090255,-5.803409,81013,1
4QA,Pedroso,Pedroso,Pedroso,El Pedroso,(null),ES,Europe/Madrid,37.837364,-5.762428,62918,1
4QK,Cinco Casas,Cinco Casas,Cinco Casas,Argamasilla de Alba,(null),ES,Europe/Madrid,39.169243,-3.23269,59211,1
4QS,Andujar,Andujar,Andujar,Andujar,(null),ES,Europe/Madrid,38.028257,-4.065973,40689,1
4QW,Palma Del Rio,Palma Del Rio,Palma Del Rio,Palma del Rio,(null),ES,Europe/Madrid,37.718067,-5.292768,47009,1
4RN,Puerto Real,Puerto Real,Puerto Real,Puerto Real,(null),ES,Europe/Madrid,36.530994,-6.185709,67155,1
4RZ,Casariche,Casariche,Casariche,Lora de Estepa,(null),ES,Europe/Madrid,37.294563,-4.764391,104736,1
4SM,Arriate,Arriate,Arriate,Arriate,(null),ES,Europe/Madrid,36.790584,-5.140773,304117,1
4SN,Benaojan-montej,Benaojan-montej,Benaojan-Montejaque,Benaojan,(null),ES,Europe/Madrid,36.71376,-5.246414,82271,1
4TN,Castillejo-anov,Castillejo-anov,Castillejo-Anover,Yepes,(null),ES,Europe/Madrid,39.949566,-3.73844,40762,1
4UB,Almansa,Almansa,Almansa,Almansa,(null),ES,Europe/Madrid,38.867878,-1.105478,40594,1
4UY,Crevillente (ap,Crevillente (ap,Crevillent,Crevillent,(null),ES,Europe/Madrid,38.224499,-0.781546,66737,1
4VE,Xativa,Xativa,Xativa,Xativa,(null),ES,Europe/Madrid,38.992116,-0.52458,50346,1
4VJ,Valencia-Cabanyal,Valencia-Cabanyal,Valencia-Cabanyal,Valencia,(null),ES,Europe/Madrid,39.469955,-0.334705,19900,1
4WD,Noblejas (apd),Noblejas (apd),Noblejas,Noblejas,(null),ES,Europe/Madrid,39.972522,-3.442616,80547,1
4WK,Huete,Huete,Huete,Huete,(null),ES,Europe/Madrid,40.146751,-2.681783,1949,1
4XC,Siete Aguas,Siete Aguas,Siete Aguas,Siete Aguas,(null),ES,Europe/Madrid,39.456886,-0.903045,83313,1
4XF,Chiva (apt),Chiva (apt),Chiva,Chiva,(null),ES,Europe/Madrid,39.471059,-0.722932,60297,1
4XU,Villahermosa (a,Villahermosa (a,Villahermosa,Burbaguena,(null),ES,Europe/Madrid,41.108467,-1.239979,317497,1
4YE,Santa Eulalia D,Santa Eulalia D,Santa Eulalia del Campo,Villarquemado,(null),ES,Europe/Madrid,40.572917,-1.31298,105265,1
4YL,Rubielos De Mor,Rubielos De Mor,Rubielos de Mora,Los Mases,(null),ES,Europe/Madrid,40.110618,-0.740866,81869,1
4YU,Agullent,Agullent,Agullent,Benissoda,(null),ES,Europe/Madrid,38.830569,-0.551194,104680,1
4YX,Cocentaina (apd,Cocentaina (apd,Cocentaina,Cocentaina,(null),ES,Europe/Madrid,38.740718,-0.446916,67332,1
4ZD,Jadraque,Jadraque,Jadraque,Palmaces de Jadraque,(null),ES,Europe/Madrid,40.930909,-2.935869,102055,1
4ZH,Santa Maria De,Santa Maria De,Santa Maria de Huerta,Santa Maria de Huerta,(null),ES,Europe/Madrid,41.263947,-2.177927,97507,1
4ZN,Ateca,Ateca,Ateca,Ateca,(null),ES,Europe/Madrid,41.324658,-1.785261,71556,1
4ZQ,Embid De Jalon,Embid De Jalon,Embid de Jalon,Embid de la Ribera,(null),ES,Europe/Madrid,41.421756,-1.592101,41901,1
4ZX,Calatorao (apd,Calatorao (apd,Calatorao,Calatorao,(null),ES,Europe/Madrid,41.528622,-1.360762,63156,1
5AB,Plasencia De Ja,Plasencia De Ja,Plasencia de Jalon,Bardallur,(null),ES,Europe/Madrid,41.688869,-1.23481,105123,1
5AG,Caspe,Caspe,Caspe,Caspe,(null),ES,Europe/Madrid,41.239818,-0.042752,306955,1
5AN,Sant Vicenc De,Sant Vicenc De,Sant Vicenc de Calders,Coma-ruga,(null),ES,Europe/Madrid,41.186245,1.526315,310798,1
5AS,Plasencia Del M,Plasencia Del M,Plasencia del Monte,Ayerbe,(null),ES,Europe/Madrid,42.205324,-0.559321,105124,1
5BE,Canfranc,Canfranc,Canfranc,Canfranc,(null),ES,Europe/Madrid,42.751469,-0.514032,63133,1
5BG,Villanueva De G,Villanueva De G,Villanueva de Gallego,San Mateo de Gallego,(null),ES,Europe/Madrid,41.765503,-0.822226,317498,1
5BM,Selgua,Selgua,Selgua,Monzon,(null),ES,Europe/Madrid,41.906113,0.148207,61379,1
5BQ,Barcelona-Sant Andreu Condal,Barcelona-Sant Andreu Condal,Barcelona-Sant Andreu Comtal,Sant Adria de Besos,(null),ES,Europe/Madrid,41.436104,2.193142,22567,1
5BT,Cardedeu,Cardedeu,Cardedeu,Cardedeu,(null),ES,Europe/Madrid,41.636669,2.356209,62805,1
5CE,Fornells De La,Fornells De La,Fornells de la Selva,Fornells de la Selva,(null),ES,Europe/Madrid,41.935045,2.809728,43405,1
5CU,Etxarri-aranatz,Etxarri-aranatz,Etxarri-Aranatz,Echarri-Aranaz,(null),ES,Europe/Madrid,42.911117,-2.07121,85258,1
5DU,Luceni,Luceni,Luceni,Pedrola,(null),ES,Europe/Madrid,41.826098,-1.243592,104941,1
5ED,Almazan-villa,Almazan-villa,Almazan-Villa,Almazan,(null),ES,Europe/Madrid,41.489046,-2.525407,55419,1
5FG,Konin,Konin,Konin,Konin,(null),PL,Europe/Warsaw,52.2314,18.253332,71561,1
5FO,Sopot,Sopot,Sopot,Sopot,(null),PL,Europe/Warsaw,54.440166,18.56232,48765,1
5RX,"Croxley Green, Herts","Croxley Green, Herts","Croxley Green, Herts",Watford,(null),GB,Europe/London,51.650887,-0.42717,17069,1
5TC,"Portchester, Hants","Portchester, Hants","Portchester, Hants",Portsmouth,(null),GB,Europe/London,50.847866,-1.123474,9334,1
5WB,"Hawarden Bridge, Clywd","Hawarden Bridge, Clywd",Hawarden Bridge,Hawarden,(null),GB,Europe/London,53.218064,-3.032752,42765,1
